Date	Keyword	City	State	Value	Center	latitude	longitude
20230203	Derailment	Youngstown	OH	100	Youngstown	41.1035786	-80.6520161
20230203	Derailment	Butte-Bozeman	MT	86	Bozeman	45.6794293	-111.044047
20230203	Derailment	Cheyenne WY-Scottsbluff	NE	65	Scottsbluff	41.862302	-103.6627088
20230203	Derailment	Binghamton	NY	61	Binghamton	42.0987125	-75.9125262
20230203	Derailment	Minot-Bismarck-Dickinson(Williston)	ND	51	Dickinson	46.8791756	-102.7896242
20230203	Derailment	Hattiesburg-Laurel	MS	47	Laurel	31.6940509	-89.1306124
20230203	Derailment	Jackson	TN	44	Jackson	35.6144446	-88.8177418
20230203	Derailment	Alexandria	LA	42	Alexandria	33.768701	-85.88066868678666
20230203	Derailment	Wheeling WV-Steubenville	OH	39	Steubenville	40.3697905	-80.6339638
20230203	Derailment	Laredo	TX	36	Laredo	27.5236998	-99.497352
20230203	Derailment	Toledo	OH	35	Toledo	41.6529143	-83.5378173
20230203	Derailment	Pittsburgh	PA	33	Pittsburgh	40.4416941	-79.9900861
20230203	Derailment	Twin Falls	ID	30	Twin Falls	42.5704456	-114.4602554
20230203	Derailment	Grand Junction-Montrose	CO	28	Montrose	38.4375391	-108.2403855
20230203	Derailment	Sioux City	IA	27	Sioux City	42.4966815	-96.4058782
20230203	Derailment	Clarksburg-Weston	WV	27	Weston	39.0384274	-80.467313
20230203	Derailment	Evansville	IN	27	Evansville	37.9747645	-87.5558483
20230203	Derailment	Amarillo	TX	27	Amarillo	35.2072185	-101.833824
20230203	Derailment	La Crosse-Eau Claire	WI	26	Eau Claire	44.811349	-91.4984941
20230203	Derailment	Charleston-Huntington	WV	25	Huntington	38.4192496	-82.445154
20230203	Derailment	Jackson	MS	21	Jackson	32.3086744	-90.1983063
20230203	Derailment	Cleveland-Akron (Canton)	OH	21	Akron	41.083064	-81.518485
20230203	Derailment	Corpus Christi	TX	20	Corpus Christi	27.7635302	-97.4033191
20230203	Derailment	Harrisonburg	VA	20	Harrisonburg	38.4493315	-78.8688833
20230203	Derailment	Rockford	IL	18	Rockford	42.2713945	-89.093966
20230203	Derailment	Johnstown-Altoona	PA	18	Altoona	40.518681	-78.394736
20230203	Derailment	Terre Haute	IN	18	Terre Haute	39.4667025	-87.4139119
20230203	Derailment	Paducah KY-Cape Girardeau MO-Harrisburg-Mount Vernon	IL	17	Mount Vernon	38.3172715	-88.9031201
20230203	Derailment	Davenport IA-Rock Island-Moline	IL	16	Moline	41.5058344	-90.5136642
20230203	Derailment	Wilmington	NC	15	Wilmington	34.2257282	-77.9447107
20230203	Derailment	Columbus	OH	15	Columbus	39.9622601	-83.0007065
20230203	Derailment	Columbus-Tupelo-West Point	MS	14	West Point	33.6076186	-88.6503255
20230203	Derailment	Medford-Klamath Falls	OR	14	Klamath Falls	42.224867	-121.7816704
20230203	Derailment	Traverse City-Cadillac	MI	13	Cadillac	44.3353211	-85.5741088
20230203	Derailment	Anchorage	AK	13	Anchorage	61.2163129	-149.894852
20230203	Derailment	Knoxville	TN	11	Knoxville	35.9603948	-83.9210261
20230203	Derailment	Springfield	MO	11	Springfield		
20230203	Derailment	Burlington VT-Plattsburgh	NY	11	Plattsburgh	44.69282	-73.45562
20230203	Derailment	Buffalo	NY	10	Buffalo	42.8867166	-78.8783922
20230203	Derailment	Richmond-Petersburg	VA	10	Petersburg	37.227928	-77.4019268
20230203	Derailment	Harrisburg-Lancaster-Lebanon-York	PA	8	York	39.9067499	-76.7008946
20230203	Derailment	Ft. Smith-Fayetteville-Springdale-Rogers	AR	8	Rogers	36.3320197	-94.1185366
20230203	Derailment	Syracuse	NY	7	Syracuse	43.0481221	-76.1474244
20230203	Derailment	Roanoke-Lynchburg	VA	7	Lynchburg	37.4137536	-79.1422464
20230203	Derailment	Boise	ID	7	Boise	43.6166163	-116.200886
20230203	Derailment	Flint-Saginaw-Bay City	MI	7	Bay City	43.5944677	-83.8888648
20230203	Derailment	Hartford & New Haven	CT	7	New Haven	41.3082138	-72.9250518
20230203	Derailment	Harlingen-Weslaco-Brownsville-McAllen	TX	7	McAllen	26.204114	-98.2300605
20230203	Derailment	Greensboro-High Point-Winston Salem	NC	7	Winston Salem	36.0998131	-80.2440518
20230203	Derailment	Tucson (Sierra Vista)	AZ	6	Tucson	32.2228765	-110.9748477
20230203	Derailment	Cincinnati	OH	5	Cincinnati	39.1014537	-84.5124602
20230203	Derailment	Madison	WI	4	Madison	43.074761	-89.3837613
20230203	Derailment	Albuquerque-Santa Fe	NM	4	Santa Fe	35.6876096	-105.938456
20230203	Derailment	Ft. Myers-Naples	FL	4	Naples	26.1421976	-81.7942944
20230203	Derailment	St. Louis	MO	4	St. Louis	38.6280278	-90.1910154
20230203	Derailment	Charlotte	NC	3	Charlotte	35.2272086	-80.8430827
20230203	Derailment	Las Vegas	NV	3	Las Vegas	36.1672559	-115.148516
20230203	Derailment	Indianapolis	IN	3	Indianapolis	39.7683331	-86.1583502
20230203	Derailment	Jacksonville	FL	3	Jacksonville	30.3321838	-81.655651
20230203	Derailment	West Palm Beach-Ft. Pierce	FL	3	Ft. Pierce	27.4467056	-80.3256056
20230203	Derailment	Austin	TX	3	Austin	30.2711286	-97.7436995
20230203	Derailment	Philadelphia	PA	2	Philadelphia	39.9527237	-75.1635262
20230203	Derailment	Chicago	IL	2	Chicago	41.8755616	-87.6244212
20230203	Derailment	Washington DC (Hagerstown	MD)	2	Washington DC	39.0108743	-77.17737392001567
20230203	Derailment	Detroit	MI	2	Detroit	42.3315509	-83.0466403
20230203	Derailment	Seattle-Tacoma	WA	2	Tacoma	47.2495798	-122.439874
20230203	Derailment	Minneapolis-St. Paul	MN	2	St. Paul	44.9497487	-93.0931028
20230203	Derailment	Nashville	TN	2	Nashville	36.1622767	-86.7742984
20230203	Derailment	New York	NY	2	New York	40.7127281	-74.0060152
20230203	Derailment	Portland	OR	1	Portland	45.5202471	-122.674194
20230203	Derailment	Denver	CO	1	Denver	39.7392364	-104.984862
20230203	Derailment	Boston MA-Manchester	NH	1	Manchester	42.9956397	-71.4547891
20230203	Derailment	Phoenix	AZ	1	Phoenix	33.4484367	-112.074141
20230203	Derailment	Dallas-Ft. Worth	TX	1	Ft. Worth	32.753177	-97.3327459
20230203	Derailment	Orlando-Daytona Beach-Melbourne	FL	1	Melbourne	28.106471	-80.6371513
20230204	Derailment	North Platte	NE	100	North Platte	41.1238873	-100.7654232
20230204	Derailment	Presque Isle	ME	28	Presque Isle	46.6832082	-68.0141431
20230204	Derailment	Youngstown	OH	20	Youngstown	41.1035786	-80.6520161
20230204	Derailment	Parkersburg	WV	12	Parkersburg	39.2699565	-81.5506916
20230204	Derailment	Missoula	MT	9	Missoula	46.8701049	-113.995267
20230204	Derailment	Erie	PA	9	Erie	42.1294712	-80.0852695
20230204	Derailment	Wheeling WV-Steubenville	OH	8	Steubenville	40.3697905	-80.6339638
20230204	Derailment	Fairbanks	AK	8	Fairbanks	64.837845	-147.716675
20230204	Derailment	Butte-Bozeman	MT	8	Bozeman	45.6794293	-111.044047
20230204	Derailment	Billings,	MT	7	Billings,	45.7547785	-108.6149764
20230204	Derailment	Bluefield-Beckley-Oak Hill	WV	6	Oak Hill	37.9723339	-81.1487136
20230204	Derailment	Alexandria	LA	6	Alexandria	33.768701	-85.88066868678666
20230204	Derailment	Cheyenne WY-Scottsbluff	NE	6	Scottsbluff	41.862302	-103.6627088
20230204	Derailment	Pittsburgh	PA	6	Pittsburgh	40.4416941	-79.9900861
20230204	Derailment	Abilene-Sweetwater	TX	5	Sweetwater	32.4709519	-100.405938
20230204	Derailment	Toledo	OH	4	Toledo	41.6529143	-83.5378173
20230204	Derailment	Gainesville	FL	4	Gainesville	29.6519684	-82.3249846
20230204	Derailment	Elmira	NY	4	Elmira	42.0897965	-76.8077338
20230204	Derailment	Cleveland-Akron (Canton)	OH	4	Akron	41.083064	-81.518485
20230204	Derailment	Watertown	NY	3	Watertown	43.9747838	-75.9107565
20230204	Derailment	Grand Junction-Montrose	CO	3	Montrose	38.4375391	-108.2403855
20230204	Derailment	Clarksburg-Weston	WV	3	Weston	39.0384274	-80.467313
20230204	Derailment	Anchorage	AK	3	Anchorage	61.2163129	-149.894852
20230204	Derailment	Rockford	IL	3	Rockford	42.2713945	-89.093966
20230204	Derailment	Lincoln & Hastings-Kearney	NE	3	Kearney	40.4906216	-98.9472344
20230204	Derailment	Sioux City	IA	3	Sioux City	42.4966815	-96.4058782
20230204	Derailment	Jacksonville	FL	2	Jacksonville	30.3321838	-81.655651
20230204	Derailment	Columbus	OH	2	Columbus	39.9622601	-83.0007065
20230204	Derailment	Tyler-Longview(Lufkin & Nacogdoches)	TX	2	Longview	32.5007031	-94.74049
20230204	Derailment	Sherman TX-Ada	OK	2	Ada	34.7743383	-96.6783651
20230204	Derailment	Waco-Temple-Bryan	TX	2	Bryan	30.6743643	-96.3699632
20230204	Derailment	Macon	GA	2	Macon	32.8406946	-83.6324022
20230204	Derailment	Baton Rouge	LA	2	Baton Rouge	30.4507936	-91.1391153
20230204	Derailment	Wilmington	NC	2	Wilmington	34.2257282	-77.9447107
20230204	Derailment	Johnstown-Altoona	PA	2	Altoona	40.518681	-78.394736
20230204	Derailment	Dayton	OH	2	Dayton	39.7589478	-84.1916069
20230204	Derailment	Salisbury	MD	2	Salisbury	38.366027	-75.6009964
20230204	Derailment	Cincinnati	OH	1	Cincinnati	39.1014537	-84.5124602
20230204	Derailment	Lafayette	LA	1	Lafayette	30.2043259	-92.0298813
20230204	Derailment	Madison	WI	1	Madison	43.074761	-89.3837613
20230204	Derailment	Chattanooga	TN	1	Chattanooga	35.0457219	-85.3094883
20230204	Derailment	Corpus Christi	TX	1	Corpus Christi	27.7635302	-97.4033191
20230204	Derailment	Lansing	MI	1	Lansing	42.7337712	-84.5553805
20230204	Derailment	Roanoke-Lynchburg	VA	1	Lynchburg	37.4137536	-79.1422464
20230204	Derailment	Ft. Wayne	IN	1	Ft. Wayne	41.0799898	-85.1386015
20230204	Derailment	Little Rock-Pine Bluff	AR	1	Pine Bluff	34.2157064	-92.0140402
20230204	Derailment	Harrisburg-Lancaster-Lebanon-York	PA	1	York	39.9067499	-76.7008946
20230204	Derailment	Lexington	KY	1	Lexington	38.0464066	-84.4970393
20230204	Derailment	Champaign & Springfield-Decatur	IL	1	Decatur	39.8454163	-88.9524151
20230204	Derailment	Burlington VT-Plattsburgh	NY	1	Plattsburgh	44.69282	-73.45562
20230204	Derailment	Birmingham	AL	1	Birmingham	33.5206824	-86.8024326
20230204	Derailment	Ft. Myers-Naples	FL	1	Naples	26.1421976	-81.7942944
20230204	Derailment	Wilkes Barre-Scranton	PA	1	Scranton	41.4086874	-75.6621294
20230204	Derailment	Albany-Schenectady-Troy	NY	1	Troy	42.7284117	-73.6917878
20230204	Derailment	South Bend-Elkhart	IN	1	Elkhart	41.6012796	-85.8590603
20230204	Derailment	Charleston-Huntington	WV	1	Huntington	38.4192496	-82.445154
20230204	Derailment	Charlotte	NC	1	Charlotte	35.2272086	-80.8430827
20230204	Derailment	Springfield	MO	1	Springfield		
20230204	Derailment	Portland-Auburn	ME	1	Auburn	44.0978509	-70.2311655
20230204	Derailment	Knoxville	TN	1	Knoxville	35.9603948	-83.9210261
20230204	Derailment	Syracuse	NY	1	Syracuse	43.0481221	-76.1474244
20230204	Derailment	Huntsville-Decatur (Florence)	AL	1	Decatur	34.6240205	-87.05791872812708
20230204	Derailment	Cedar Rapids-Waterloo-Iowa City & Dubuque	IA	1	Dubuque	42.5006243	-90.6647985
20230204	Derailment	Minneapolis-St. Paul	MN	1	St. Paul	44.9497487	-93.0931028
20230204	Derailment	Green Bay-Appleton	WI	1	Appleton	44.2613967	-88.4069744
20230204	Derailment	Louisville	KY	1	Louisville	38.2542376	-85.759407
20230204	Derailment	Norfolk-Portsmouth-Newport News	VA	1	Newport News	36.9775016	-76.42977
20230204	Derailment	Rochester	NY	1	Rochester	43.157285	-77.615214
20230204	Derailment	Chicago	IL	1	Chicago	41.8755616	-87.6244212
20230204	Derailment	Baltimore	MD	1	Baltimore	39.2908816	-76.610759
20230205	Derailment	Youngstown	OH	100	Youngstown	41.1035786	-80.6520161
20230205	Derailment	North Platte	NE	86	North Platte	41.1238873	-100.7654232
20230205	Derailment	Juneau	AK	55	Juneau	58.3019496	-134.419734
20230205	Derailment	Wheeling WV-Steubenville	OH	40	Steubenville	40.3697905	-80.6339638
20230205	Derailment	Pittsburgh	PA	36	Pittsburgh	40.4416941	-79.9900861
20230205	Derailment	Lima	OH	32	Lima	40.7399785	-84.105006
20230205	Derailment	Cleveland-Akron (Canton)	OH	19	Akron	41.083064	-81.518485
20230205	Derailment	Sherman TX-Ada	OK	19	Ada	34.7743383	-96.6783651
20230205	Derailment	Erie	PA	16	Erie	42.1294712	-80.0852695
20230205	Derailment	Ottumwa IA-Kirksville	MO	16	Kirksville	40.1948848	-92.5833939
20230205	Derailment	St. Joseph	MO	15	St. Joseph	39.7686055	-94.8466322
20230205	Derailment	Bend	OR	14	Bend	44.0581728	-121.3153096
20230205	Derailment	Albany	GA	13	Albany	31.5782062	-84.1556809
20230205	Derailment	Laredo	TX	13	Laredo	27.5236998	-99.497352
20230205	Derailment	Johnstown-Altoona	PA	12	Altoona	40.518681	-78.394736
20230205	Derailment	Dayton	OH	12	Dayton	39.7589478	-84.1916069
20230205	Derailment	Columbus	OH	12	Columbus	39.9622601	-83.0007065
20230205	Derailment	Cheyenne WY-Scottsbluff	NE	11	Scottsbluff	41.862302	-103.6627088
20230205	Derailment	Toledo	OH	11	Toledo	41.6529143	-83.5378173
20230205	Derailment	Billings,	MT	11	Billings,	45.7547785	-108.6149764
20230205	Derailment	Yuma AZ-El Centro	CA	10	El Centro	32.792	-115.563051
20230205	Derailment	Charleston-Huntington	WV	10	Huntington	38.4192496	-82.445154
20230205	Derailment	Great Falls	MT	9	Great Falls	47.5048851	-111.29189
20230205	Derailment	Jackson	TN	9	Jackson	35.6144446	-88.8177418
20230205	Derailment	Dothan	AL	9	Dothan	31.2237434	-85.3933906
20230205	Derailment	Joplin MO-Pittsburg	KS	7	Pittsburg	37.4108841	-94.70496
20230205	Derailment	Rochester MN-Mason City IA-Austin	MN	7	Austin	43.6680928	-92.9744896
20230205	Derailment	Evansville	IN	7	Evansville	37.9747645	-87.5558483
20230205	Derailment	Cincinnati	OH	7	Cincinnati	39.1014537	-84.5124602
20230205	Derailment	Anchorage	AK	7	Anchorage	61.2163129	-149.894852
20230205	Derailment	Davenport IA-Rock Island-Moline	IL	5	Moline	41.5058344	-90.5136642
20230205	Derailment	Wichita Falls TX & Lawton	OK	5	Lawton	34.6086854	-98.3903305
20230205	Derailment	Rockford	IL	5	Rockford	42.2713945	-89.093966
20230205	Derailment	Corpus Christi	TX	5	Corpus Christi	27.7635302	-97.4033191
20230205	Derailment	Lincoln & Hastings-Kearney	NE	5	Kearney	40.4906216	-98.9472344
20230205	Derailment	Odessa-Midland	TX	5	Midland	31.9973662	-102.077948
20230205	Derailment	Terre Haute	IN	4	Terre Haute	39.4667025	-87.4139119
20230205	Derailment	Harrisburg-Lancaster-Lebanon-York	PA	4	York	39.9067499	-76.7008946
20230205	Derailment	Albany-Schenectady-Troy	NY	4	Troy	42.7284117	-73.6917878
20230205	Derailment	Panama City	FL	4	Panama City	30.1600827	-85.6545729
20230205	Derailment	Ft. Wayne	IN	4	Ft. Wayne	41.0799898	-85.1386015
20230205	Derailment	Waco-Temple-Bryan	TX	4	Bryan	30.6743643	-96.3699632
20230205	Derailment	Grand Rapids-Kalamazoo-Battle Creek	MI	4	Battle Creek	42.3192548	-85.1824269
20230205	Derailment	Macon	GA	4	Macon	32.8406946	-83.6324022
20230205	Derailment	Roanoke-Lynchburg	VA	4	Lynchburg	37.4137536	-79.1422464
20230205	Derailment	Columbus	GA	4	Columbus	32.4610708	-84.9880449
20230205	Derailment	Champaign & Springfield-Decatur	IL	3	Decatur	39.8454163	-88.9524151
20230205	Derailment	Madison	WI	3	Madison	43.074761	-89.3837613
20230205	Derailment	Tucson (Sierra Vista)	AZ	3	Tucson	32.2228765	-110.9748477
20230205	Derailment	Greenville-New Bern-Washington	NC	3	Washington	35.8725573	-76.6215245
20230205	Derailment	Cedar Rapids-Waterloo-Iowa City & Dubuque	IA	3	Dubuque	42.5006243	-90.6647985
20230205	Derailment	Green Bay-Appleton	WI	3	Appleton	44.2613967	-88.4069744
20230205	Derailment	Flint-Saginaw-Bay City	MI	3	Bay City	43.5944677	-83.8888648
20230205	Derailment	Monterey-Salinas	CA	3	Salinas	36.6744117	-121.655037
20230205	Derailment	Tri-Cities	TN-VA	3	Cities	36.457685	-82.534731
20230205	Derailment	Jackson	MS	3	Jackson	32.3086744	-90.1983063
20230205	Derailment	Des Moines-Ames	IA	3	Ames	42.0267567	-93.6170448
20230205	Derailment	El Paso	TX	3	El Paso	31.7865623	-106.441207
20230205	Derailment	Tallahassee FL-Thomasville	GA	3	Thomasville	30.8365815	-83.9787808
20230205	Derailment	Rochester	NY	3	Rochester	43.157285	-77.615214
20230205	Derailment	Norfolk-Portsmouth-Newport News	VA	2	Newport News	36.9775016	-76.42977
20230205	Derailment	Knoxville	TN	2	Knoxville	35.9603948	-83.9210261
20230205	Derailment	Augusta	GA	2	Augusta	33.4709714	-81.9748429
20230205	Derailment	Charlotte	NC	2	Charlotte	35.2272086	-80.8430827
20230205	Derailment	South Bend-Elkhart	IN	2	Elkhart	41.6012796	-85.8590603
20230205	Derailment	Hartford & New Haven	CT	2	New Haven	41.3082138	-72.9250518
20230205	Derailment	Philadelphia	PA	2	Philadelphia	39.9527237	-75.1635262
20230205	Derailment	Santa Barbara-Santa Maria-San Luis Obispo	CA	2	San Luis Obispo	35.3540209	-120.3757163
20230205	Derailment	Washington DC (Hagerstown	MD)	2	Washington DC	39.0108743	-77.17737392001567
20230205	Derailment	Wilkes Barre-Scranton	PA	2	Scranton	41.4086874	-75.6621294
20230205	Derailment	Detroit	MI	2	Detroit	42.3315509	-83.0466403
20230205	Derailment	Tampa-St. Petersburg (Sarasota)	FL	2	St. Petersburg	27.7703796	-82.6695085
20230205	Derailment	Colorado Springs-Pueblo	CO	2	Pueblo	38.2544472	-104.609141
20230205	Derailment	Indianapolis	IN	2	Indianapolis	39.7683331	-86.1583502
20230205	Derailment	Milwaukee	WI	2	Milwaukee	43.0349931	-87.922497
20230205	Derailment	Jacksonville	FL	2	Jacksonville	30.3321838	-81.655651
20230205	Derailment	Denver	CO	2	Denver	39.7392364	-104.984862
20230205	Derailment	Baltimore	MD	2	Baltimore	39.2908816	-76.610759
20230205	Derailment	Syracuse	NY	2	Syracuse	43.0481221	-76.1474244
20230205	Derailment	Portland-Auburn	ME	2	Auburn	44.0978509	-70.2311655
20230205	Derailment	Portland	OR	2	Portland	45.5202471	-122.674194
20230205	Derailment	Las Vegas	NV	1	Las Vegas	36.1672559	-115.148516
20230205	Derailment	Lexington	KY	1	Lexington	38.0464066	-84.4970393
20230205	Derailment	Louisville	KY	1	Louisville	38.2542376	-85.759407
20230205	Derailment	Orlando-Daytona Beach-Melbourne	FL	1	Melbourne	28.106471	-80.6371513
20230205	Derailment	Little Rock-Pine Bluff	AR	1	Pine Bluff	34.2157064	-92.0140402
20230205	Derailment	West Palm Beach-Ft. Pierce	FL	1	Ft. Pierce	27.4467056	-80.3256056
20230205	Derailment	Chicago	IL	1	Chicago	41.8755616	-87.6244212
20230205	Derailment	Ft. Myers-Naples	FL	1	Naples	26.1421976	-81.7942944
20230205	Derailment	Nashville	TN	1	Nashville	36.1622767	-86.7742984
20230205	Derailment	Spokane	WA	1	Spokane	47.6571934	-117.42351
20230205	Derailment	Albuquerque-Santa Fe	NM	1	Santa Fe	35.6876096	-105.938456
20230205	Derailment	Raleigh-Durham (Fayetteville)	NC	1	Durham	35.996653	-78.9018053
20230205	Derailment	Kansas City	MO	1	Kansas City	39.100105	-94.5781416
20230205	Derailment	Houston	TX	1	Houston	29.7589382	-95.3676974
20230205	Derailment	Phoenix	AZ	1	Phoenix	33.4484367	-112.074141
20230205	Derailment	St. Louis	MO	1	St. Louis	38.6280278	-90.1910154
20230205	Derailment	Atlanta	GA	1	Atlanta	33.7489924	-84.3902644
20230205	Derailment	Minneapolis-St. Paul	MN	1	St. Paul	44.9497487	-93.0931028
20230205	Derailment	Mobile AL-Pensacola (Ft. Walton Beach)	FL	1	Pensacola	30.421309	-87.2169149
20230205	Derailment	Providence RI-New Bedford	MA	1	New Bedford	41.6362152	-70.934205
20230205	Derailment	Greenville-Spartanburg SC-Asheville NC-Anderson	SC	1	Anderson	34.5258335	-82.652962
20230205	Derailment	New York	NY	1	New York	40.7127281	-74.0060152
20230205	Derailment	Fresno-Visalia	CA	1	Visalia	36.3302284	-119.292058
20230205	Derailment	Seattle-Tacoma	WA	1	Tacoma	47.2495798	-122.439874
20230205	Derailment	San Antonio	TX	1	San Antonio	29.4246002	-98.4951405
20230205	Derailment	Los Angeles	CA	1	Los Angeles	34.0536909	-118.242766
20230205	Derailment	Dallas-Ft. Worth	TX	1	Ft. Worth	32.753177	-97.3327459
20230205	Derailment	Sacramento-Stockton-Modesto	CA	1	Modesto	37.6390972	-120.9968782
20230205	Derailment	Miami-Ft. Lauderdale	FL	1	Ft. Lauderdale	26.1223084	-80.1433786
20230205	Derailment	Oklahoma City	OK	1	Oklahoma City	35.4729886	-97.5170536
20230205	Derailment	Austin	TX	1	Austin	30.2711286	-97.7436995
20230205	Derailment	San Francisco-Oakland-San Jose	CA	1	San Jose	37.3361663	-121.890591
20230206	Derailment	Glendive	MT	100	Glendive	47.10529	-104.71246
20230206	Derailment	Youngstown	OH	55	Youngstown	41.1035786	-80.6520161
20230206	Derailment	Pittsburgh	PA	19	Pittsburgh	40.4416941	-79.9900861
20230206	Derailment	Lima	OH	11	Lima	40.7399785	-84.105006
20230206	Derailment	Cleveland-Akron (Canton)	OH	11	Akron	41.083064	-81.518485
20230206	Derailment	Great Falls	MT	10	Great Falls	47.5048851	-111.29189
20230206	Derailment	Victoria	TX	10	Victoria	28.8026443	-96.9766308
20230206	Derailment	Elmira	NY	8	Elmira	42.0897965	-76.8077338
20230206	Derailment	Zanesville	OH	8	Zanesville	39.9403453	-82.0131924
20230206	Derailment	Helena	MT	8	Helena	46.5927425	-112.036277
20230206	Derailment	Erie	PA	7	Erie	42.1294712	-80.0852695
20230206	Derailment	Toledo	OH	6	Toledo	41.6529143	-83.5378173
20230206	Derailment	Columbus	OH	6	Columbus	39.9622601	-83.0007065
20230206	Derailment	Dayton	OH	6	Dayton	39.7589478	-84.1916069
20230206	Derailment	Lafayette	IN	6	Lafayette	40.4167022	-86.8752869
20230206	Derailment	Wheeling WV-Steubenville	OH	6	Steubenville	40.3697905	-80.6339638
20230206	Derailment	Butte-Bozeman	MT	5	Bozeman	45.6794293	-111.044047
20230206	Derailment	Bowling Green	KY	5	Bowling Green	36.9903199	-86.4436018
20230206	Derailment	Yuma AZ-El Centro	CA	5	El Centro	32.792	-115.563051
20230206	Derailment	Idaho Falls-Pocatello	ID	4	Pocatello	42.8620287	-112.450627
20230206	Derailment	Sioux City	IA	4	Sioux City	42.4966815	-96.4058782
20230206	Derailment	Alexandria	LA	4	Alexandria	33.768701	-85.88066868678666
20230206	Derailment	Paducah KY-Cape Girardeau MO-Harrisburg-Mount Vernon	IL	4	Mount Vernon	38.3172715	-88.9031201
20230206	Derailment	Cincinnati	OH	4	Cincinnati	39.1014537	-84.5124602
20230206	Derailment	Johnstown-Altoona	PA	4	Altoona	40.518681	-78.394736
20230206	Derailment	Harrisburg-Lancaster-Lebanon-York	PA	3	York	39.9067499	-76.7008946
20230206	Derailment	Santa Barbara-Santa Maria-San Luis Obispo	CA	3	San Luis Obispo	35.3540209	-120.3757163
20230206	Derailment	San Angelo	TX	3	San Angelo	31.4649685	-100.4405094
20230206	Derailment	Charleston-Huntington	WV	3	Huntington	38.4192496	-82.445154
20230206	Derailment	Lansing	MI	3	Lansing	42.7337712	-84.5553805
20230206	Derailment	Anchorage	AK	3	Anchorage	61.2163129	-149.894852
20230206	Derailment	Rochester MN-Mason City IA-Austin	MN	2	Austin	43.6680928	-92.9744896
20230206	Derailment	Springfield-Holyoke	MA	2	Holyoke	42.2071434	-72.60765
20230206	Derailment	Albany	GA	2	Albany	31.5782062	-84.1556809
20230206	Derailment	Medford-Klamath Falls	OR	2	Klamath Falls	42.224867	-121.7816704
20230206	Derailment	Rockford	IL	2	Rockford	42.2713945	-89.093966
20230206	Derailment	El Paso	TX	2	El Paso	31.7865623	-106.441207
20230206	Derailment	Wichita Falls TX & Lawton	OK	2	Lawton	34.6086854	-98.3903305
20230206	Derailment	Wilkes Barre-Scranton	PA	2	Scranton	41.4086874	-75.6621294
20230206	Derailment	Ft. Wayne	IN	2	Ft. Wayne	41.0799898	-85.1386015
20230206	Derailment	Augusta	GA	2	Augusta	33.4709714	-81.9748429
20230206	Derailment	Grand Rapids-Kalamazoo-Battle Creek	MI	2	Battle Creek	42.3192548	-85.1824269
20230206	Derailment	Burlington VT-Plattsburgh	NY	2	Plattsburgh	44.69282	-73.45562
20230206	Derailment	Mobile AL-Pensacola (Ft. Walton Beach)	FL	2	Pensacola	30.421309	-87.2169149
20230206	Derailment	Ft. Myers-Naples	FL	2	Naples	26.1421976	-81.7942944
20230206	Derailment	Charleston	SC	2	Charleston	32.7884363	-79.9399309
20230206	Derailment	Reno	NV	2	Reno	39.5261206	-119.8126581
20230206	Derailment	Montgomery (Selma)	AL	1	Montgomery	32.3669656	-86.3006485
20230206	Derailment	Hartford & New Haven	CT	1	New Haven	41.3082138	-72.9250518
20230206	Derailment	Macon	GA	1	Macon	32.8406946	-83.6324022
20230206	Derailment	Wilmington	NC	1	Wilmington	34.2257282	-77.9447107
20230206	Derailment	Columbia-Jefferson City	MO	1	Jefferson City	38.577359	-92.1724265
20230206	Derailment	Fresno-Visalia	CA	1	Visalia	36.3302284	-119.292058
20230206	Derailment	Bakersfield	CA	1	Bakersfield	35.3738712	-119.0194639
20230206	Derailment	Evansville	IN	1	Evansville	37.9747645	-87.5558483
20230206	Derailment	Buffalo	NY	1	Buffalo	42.8867166	-78.8783922
20230206	Derailment	Wichita-Hutchinson	KS	1	Hutchinson	38.0608444	-97.9297743
20230206	Derailment	Sioux Falls(Mitchell)	SD	1	Sioux Falls	43.5488256	-96.7307737
20230206	Derailment	Amarillo	TX	1	Amarillo	35.2072185	-101.833824
20230206	Derailment	Philadelphia	PA	1	Philadelphia	39.9527237	-75.1635262
20230206	Derailment	Colorado Springs-Pueblo	CO	1	Pueblo	38.2544472	-104.609141
20230206	Derailment	Tucson (Sierra Vista)	AZ	1	Tucson	32.2228765	-110.9748477
20230206	Derailment	Chico-Redding	CA	1	Redding	40.5863563	-122.391675
20230206	Derailment	Tallahassee FL-Thomasville	GA	1	Thomasville	30.8365815	-83.9787808
20230206	Derailment	Shreveport	LA	1	Shreveport	32.4707862	-93.7559378
20230206	Derailment	Peoria-Bloomington	IL	1	Bloomington	40.4797828	-88.9939147
20230206	Derailment	Indianapolis	IN	1	Indianapolis	39.7683331	-86.1583502
20230206	Derailment	Columbia	SC	1	Columbia	34.0007493	-81.0343313
20230206	Derailment	Louisville	KY	1	Louisville	38.2542376	-85.759407
20230206	Derailment	Spokane	WA	1	Spokane	47.6571934	-117.42351
20230206	Derailment	St. Louis	MO	1	St. Louis	38.6280278	-90.1910154
20230206	Derailment	Baltimore	MD	1	Baltimore	39.2908816	-76.610759
20230206	Derailment	Knoxville	TN	1	Knoxville	35.9603948	-83.9210261
20230206	Derailment	Detroit	MI	1	Detroit	42.3315509	-83.0466403
20230206	Derailment	Washington DC (Hagerstown	MD)	1	Washington DC	39.0108743	-77.17737392001567
20230206	Derailment	Orlando-Daytona Beach-Melbourne	FL	1	Melbourne	28.106471	-80.6371513
20230206	Derailment	Milwaukee	WI	1	Milwaukee	43.0349931	-87.922497
20230206	Derailment	Green Bay-Appleton	WI	1	Appleton	44.2613967	-88.4069744
20230206	Derailment	Omaha	NE	1	Omaha	41.2587459	-95.9383758
20230206	Derailment	South Bend-Elkhart	IN	1	Elkhart	41.6012796	-85.8590603
20230206	Derailment	Oklahoma City	OK	1	Oklahoma City	35.4729886	-97.5170536
20230206	Derailment	Portland	OR	1	Portland	45.5202471	-122.674194
20230206	Derailment	Greenville-New Bern-Washington	NC	1	Washington	35.8725573	-76.6215245
20230206	Derailment	Tampa-St. Petersburg (Sarasota)	FL	1	St. Petersburg	27.7703796	-82.6695085
20230206	Derailment	Tyler-Longview(Lufkin & Nacogdoches)	TX	1	Longview	32.5007031	-94.74049
20230206	Derailment	Richmond-Petersburg	VA	1	Petersburg	37.227928	-77.4019268
20230206	Derailment	Denver	CO	1	Denver	39.7392364	-104.984862
20230206	Derailment	Albuquerque-Santa Fe	NM	1	Santa Fe	35.6876096	-105.938456
20230206	Derailment	Chicago	IL	1	Chicago	41.8755616	-87.6244212
20230206	Derailment	Cedar Rapids-Waterloo-Iowa City & Dubuque	IA	1	Dubuque	42.5006243	-90.6647985
20230206	Derailment	Kansas City	MO	1	Kansas City	39.100105	-94.5781416
20230206	Derailment	Flint-Saginaw-Bay City	MI	1	Bay City	43.5944677	-83.8888648
20230206	Derailment	Greensboro-High Point-Winston Salem	NC	1	Winston Salem	36.0998131	-80.2440518
20230206	Derailment	Charlotte	NC	1	Charlotte	35.2272086	-80.8430827
20230206	Derailment	West Palm Beach-Ft. Pierce	FL	1	Ft. Pierce	27.4467056	-80.3256056
20230206	Derailment	Houston	TX	1	Houston	29.7589382	-95.3676974
20230206	Derailment	Minneapolis-St. Paul	MN	1	St. Paul	44.9497487	-93.0931028
20230206	Derailment	Portland-Auburn	ME	1	Auburn	44.0978509	-70.2311655
20230206	Derailment	Nashville	TN	1	Nashville	36.1622767	-86.7742984
20230206	Derailment	Atlanta	GA	1	Atlanta	33.7489924	-84.3902644
20230206	Derailment	Ft. Smith-Fayetteville-Springdale-Rogers	AR	1	Rogers	36.3320197	-94.1185366
20230206	Derailment	San Antonio	TX	1	San Antonio	29.4246002	-98.4951405
20230206	Derailment	Greenville-Spartanburg SC-Asheville NC-Anderson	SC	1	Anderson	34.5258335	-82.652962
20230206	Derailment	Seattle-Tacoma	WA	1	Tacoma	47.2495798	-122.439874
20230206	Derailment	Dallas-Ft. Worth	TX	1	Ft. Worth	32.753177	-97.3327459
20230207	Derailment	Youngstown	OH	100	Youngstown	41.1035786	-80.6520161
20230207	Derailment	Pittsburgh	PA	31	Pittsburgh	40.4416941	-79.9900861
20230207	Derailment	Wheeling WV-Steubenville	OH	22	Steubenville	40.3697905	-80.6339638
20230207	Derailment	Cleveland-Akron (Canton)	OH	17	Akron	41.083064	-81.518485
20230207	Derailment	Clarksburg-Weston	WV	17	Weston	39.0384274	-80.467313
20230207	Derailment	Twin Falls	ID	17	Twin Falls	42.5704456	-114.4602554
20230207	Derailment	Eureka	CA	16	Eureka	40.7906871	-124.1673746
20230207	Derailment	Lima	OH	14	Lima	40.7399785	-84.105006
20230207	Derailment	Cheyenne WY-Scottsbluff	NE	13	Scottsbluff	41.862302	-103.6627088
20230207	Derailment	Bangor	ME	13	Bangor	44.8011821	-68.7778138
20230207	Derailment	Great Falls	MT	13	Great Falls	47.5048851	-111.29189
20230207	Derailment	Sherman TX-Ada	OK	13	Ada	34.7743383	-96.6783651
20230207	Derailment	Casper-Riverton	WY	12	Riverton	43.0247245	-108.380727
20230207	Derailment	Butte-Bozeman	MT	11	Bozeman	45.6794293	-111.044047
20230207	Derailment	Palm Springs	CA	10	Palm Springs	33.77217945	-116.49529769683984
20230207	Derailment	Toledo	OH	10	Toledo	41.6529143	-83.5378173
20230207	Derailment	Dayton	OH	10	Dayton	39.7589478	-84.1916069
20230207	Derailment	Erie	PA	10	Erie	42.1294712	-80.0852695
20230207	Derailment	Sioux City	IA	10	Sioux City	42.4966815	-96.4058782
20230207	Derailment	Columbus	OH	9	Columbus	39.9622601	-83.0007065
20230207	Derailment	Tri-Cities	TN-VA	9	Cities	36.457685	-82.534731
20230207	Derailment	Topeka	KS	8	Topeka	39.049011	-95.677556
20230207	Derailment	Corpus Christi	TX	8	Corpus Christi	27.7635302	-97.4033191
20230207	Derailment	Hattiesburg-Laurel	MS	8	Laurel	31.6940509	-89.1306124
20230207	Derailment	Yuma AZ-El Centro	CA	8	El Centro	32.792	-115.563051
20230207	Derailment	Louisville	KY	7	Louisville	38.2542376	-85.759407
20230207	Derailment	Cincinnati	OH	7	Cincinnati	39.1014537	-84.5124602
20230207	Derailment	Bluefield-Beckley-Oak Hill	WV	7	Oak Hill	37.9723339	-81.1487136
20230207	Derailment	Charleston-Huntington	WV	7	Huntington	38.4192496	-82.445154
20230207	Derailment	Green Bay-Appleton	WI	7	Appleton	44.2613967	-88.4069744
20230207	Derailment	Montgomery (Selma)	AL	7	Montgomery	32.3669656	-86.3006485
20230207	Derailment	Charlottesville	VA	7	Charlottesville	38.029306	-78.4766781
20230207	Derailment	Monroe LA-El Dorado	AR	6	El Dorado	33.2115087	-92.6650144
20230207	Derailment	Binghamton	NY	6	Binghamton	42.0987125	-75.9125262
20230207	Derailment	Medford-Klamath Falls	OR	6	Klamath Falls	42.224867	-121.7816704
20230207	Derailment	Harrisburg-Lancaster-Lebanon-York	PA	5	York	39.9067499	-76.7008946
20230207	Derailment	Abilene-Sweetwater	TX	5	Sweetwater	32.4709519	-100.405938
20230207	Derailment	Terre Haute	IN	5	Terre Haute	39.4667025	-87.4139119
20230207	Derailment	Florence-Myrtle Beach	SC	4	Myrtle Beach	33.6956461	-78.8900409
20230207	Derailment	Fargo-Valley City	ND	4	Valley City	46.923313	-98.003155
20230207	Derailment	Anchorage	AK	4	Anchorage	61.2163129	-149.894852
20230207	Derailment	Chattanooga	TN	4	Chattanooga	35.0457219	-85.3094883
20230207	Derailment	Macon	GA	4	Macon	32.8406946	-83.6324022
20230207	Derailment	Albany-Schenectady-Troy	NY	4	Troy	42.7284117	-73.6917878
20230207	Derailment	Johnstown-Altoona	PA	4	Altoona	40.518681	-78.394736
20230207	Derailment	Syracuse	NY	4	Syracuse	43.0481221	-76.1474244
20230207	Derailment	Idaho Falls-Pocatello	ID	4	Pocatello	42.8620287	-112.450627
20230207	Derailment	Ft. Wayne	IN	4	Ft. Wayne	41.0799898	-85.1386015
20230207	Derailment	Jackson	MS	4	Jackson	32.3086744	-90.1983063
20230207	Derailment	Wichita-Hutchinson	KS	4	Hutchinson	38.0608444	-97.9297743
20230207	Derailment	Amarillo	TX	3	Amarillo	35.2072185	-101.833824
20230207	Derailment	Oklahoma City	OK	3	Oklahoma City	35.4729886	-97.5170536
20230207	Derailment	Spokane	WA	3	Spokane	47.6571934	-117.42351
20230207	Derailment	Jacksonville	FL	3	Jacksonville	30.3321838	-81.655651
20230207	Derailment	Savannah	GA	3	Savannah	32.0564572	-81.0951271
20230207	Derailment	El Paso	TX	3	El Paso	31.7865623	-106.441207
20230207	Derailment	Lansing	MI	3	Lansing	42.7337712	-84.5553805
20230207	Derailment	Monterey-Salinas	CA	3	Salinas	36.6744117	-121.655037
20230207	Derailment	Philadelphia	PA	3	Philadelphia	39.9527237	-75.1635262
20230207	Derailment	Ft. Myers-Naples	FL	3	Naples	26.1421976	-81.7942944
20230207	Derailment	Denver	CO	3	Denver	39.7392364	-104.984862
20230207	Derailment	Burlington VT-Plattsburgh	NY	3	Plattsburgh	44.69282	-73.45562
20230207	Derailment	Wilkes Barre-Scranton	PA	3	Scranton	41.4086874	-75.6621294
20230207	Derailment	Flint-Saginaw-Bay City	MI	2	Bay City	43.5944677	-83.8888648
20230207	Derailment	Augusta	GA	2	Augusta	33.4709714	-81.9748429
20230207	Derailment	Tyler-Longview(Lufkin & Nacogdoches)	TX	2	Longview	32.5007031	-94.74049
20230207	Derailment	Yakima-Pasco-Richland-Kennewick	WA	2	Kennewick	46.2087066	-119.119919
20230207	Derailment	Kansas City	MO	2	Kansas City	39.100105	-94.5781416
20230207	Derailment	Grand Rapids-Kalamazoo-Battle Creek	MI	2	Battle Creek	42.3192548	-85.1824269
20230207	Derailment	Omaha	NE	2	Omaha	41.2587459	-95.9383758
20230207	Derailment	New Orleans	LA	2	New Orleans	29.9759983	-90.0782127
20230207	Derailment	Providence RI-New Bedford	MA	2	New Bedford	41.6362152	-70.934205
20230207	Derailment	Mobile AL-Pensacola (Ft. Walton Beach)	FL	2	Pensacola	30.421309	-87.2169149
20230207	Derailment	Madison	WI	2	Madison	43.074761	-89.3837613
20230207	Derailment	Albuquerque-Santa Fe	NM	2	Santa Fe	35.6876096	-105.938456
20230207	Derailment	Columbia	SC	2	Columbia	34.0007493	-81.0343313
20230207	Derailment	Indianapolis	IN	2	Indianapolis	39.7683331	-86.1583502
20230207	Derailment	Norfolk-Portsmouth-Newport News	VA	2	Newport News	36.9775016	-76.42977
20230207	Derailment	Greenville-Spartanburg SC-Asheville NC-Anderson	SC	2	Anderson	34.5258335	-82.652962
20230207	Derailment	Baton Rouge	LA	2	Baton Rouge	30.4507936	-91.1391153
20230207	Derailment	Las Vegas	NV	2	Las Vegas	36.1672559	-115.148516
20230207	Derailment	Lexington	KY	2	Lexington	38.0464066	-84.4970393
20230207	Derailment	Detroit	MI	2	Detroit	42.3315509	-83.0466403
20230207	Derailment	Buffalo	NY	2	Buffalo	42.8867166	-78.8783922
20230207	Derailment	Portland-Auburn	ME	2	Auburn	44.0978509	-70.2311655
20230207	Derailment	Tulsa	OK	2	Tulsa	36.1563122	-95.9927516
20230207	Derailment	Greensboro-High Point-Winston Salem	NC	1	Winston Salem	36.0998131	-80.2440518
20230207	Derailment	Washington DC (Hagerstown	MD)	1	Washington DC	39.0108743	-77.17737392001567
20230207	Derailment	Portland	OR	1	Portland	45.5202471	-122.674194
20230207	Derailment	Charleston	SC	1	Charleston	32.7884363	-79.9399309
20230207	Derailment	Charlotte	NC	1	Charlotte	35.2272086	-80.8430827
20230207	Derailment	Nashville	TN	1	Nashville	36.1622767	-86.7742984
20230207	Derailment	Seattle-Tacoma	WA	1	Tacoma	47.2495798	-122.439874
20230207	Derailment	Dallas-Ft. Worth	TX	1	Ft. Worth	32.753177	-97.3327459
20230207	Derailment	Boston MA-Manchester	NH	1	Manchester	42.9956397	-71.4547891
20230207	Derailment	Houston	TX	1	Houston	29.7589382	-95.3676974
20230207	Derailment	Minneapolis-St. Paul	MN	1	St. Paul	44.9497487	-93.0931028
20230207	Derailment	Miami-Ft. Lauderdale	FL	1	Ft. Lauderdale	26.1223084	-80.1433786
20230207	Derailment	Austin	TX	1	Austin	30.2711286	-97.7436995
20230207	Derailment	St. Louis	MO	1	St. Louis	38.6280278	-90.1910154
20230207	Derailment	San Diego	CA	1	San Diego	32.7174202	-117.1627728
20230207	Derailment	Birmingham	AL	1	Birmingham	33.5206824	-86.8024326
20230207	Derailment	Atlanta	GA	1	Atlanta	33.7489924	-84.3902644
20230207	Derailment	Chicago	IL	1	Chicago	41.8755616	-87.6244212
20230207	Derailment	San Antonio	TX	1	San Antonio	29.4246002	-98.4951405
20230207	Derailment	Milwaukee	WI	1	Milwaukee	43.0349931	-87.922497
20230207	Derailment	West Palm Beach-Ft. Pierce	FL	1	Ft. Pierce	27.4467056	-80.3256056
20230207	Derailment	Baltimore	MD	1	Baltimore	39.2908816	-76.610759
20230207	Derailment	New York	NY	1	New York	40.7127281	-74.0060152
20230207	Derailment	Tampa-St. Petersburg (Sarasota)	FL	1	St. Petersburg	27.7703796	-82.6695085
20230207	Derailment	San Francisco-Oakland-San Jose	CA	1	San Jose	37.3361663	-121.890591
20230207	Derailment	Raleigh-Durham (Fayetteville)	NC	1	Durham	35.996653	-78.9018053
20230208	Derailment	North Platte	NE	100	North Platte	41.1238873	-100.7654232
20230208	Derailment	Juneau	AK	71	Juneau	58.3019496	-134.419734
20230208	Derailment	Presque Isle	ME	35	Presque Isle	46.6832082	-68.0141431
20230208	Derailment	Youngstown	OH	33	Youngstown	41.1035786	-80.6520161
20230208	Derailment	Wheeling WV-Steubenville	OH	33	Steubenville	40.3697905	-80.6339638
20230208	Derailment	Zanesville	OH	30	Zanesville	39.9403453	-82.0131924
20230208	Derailment	Fairbanks	AK	24	Fairbanks	64.837845	-147.716675
20230208	Derailment	Mankato	MN	24	Mankato	44.1634663	-93.9993505
20230208	Derailment	Bluefield-Beckley-Oak Hill	WV	23	Oak Hill	37.9723339	-81.1487136
20230208	Derailment	Clarksburg-Weston	WV	18	Weston	39.0384274	-80.467313
20230208	Derailment	Grand Junction-Montrose	CO	18	Montrose	38.4375391	-108.2403855
20230208	Derailment	Bend	OR	15	Bend	44.0581728	-121.3153096
20230208	Derailment	Utica	NY	13	Utica	43.1009031	-75.2326641
20230208	Derailment	Lima	OH	12	Lima	40.7399785	-84.105006
20230208	Derailment	Pittsburgh	PA	10	Pittsburgh	40.4416941	-79.9900861
20230208	Derailment	Bowling Green	KY	9	Bowling Green	36.9903199	-86.4436018
20230208	Derailment	Medford-Klamath Falls	OR	9	Klamath Falls	42.224867	-121.7816704
20230208	Derailment	Laredo	TX	8	Laredo	27.5236998	-99.497352
20230208	Derailment	Terre Haute	IN	8	Terre Haute	39.4667025	-87.4139119
20230208	Derailment	Marquette	MI	7	Marquette	46.4481521	-87.6305899
20230208	Derailment	La Crosse-Eau Claire	WI	7	Eau Claire	44.811349	-91.4984941
20230208	Derailment	Huntsville-Decatur (Florence)	AL	7	Decatur	34.6240205	-87.05791872812708
20230208	Derailment	Cleveland-Akron (Canton)	OH	7	Akron	41.083064	-81.518485
20230208	Derailment	Biloxi-Gulfport	MS	7	Gulfport	30.3674198	-89.0928155
20230208	Derailment	Bangor	ME	6	Bangor	44.8011821	-68.7778138
20230208	Derailment	Sioux Falls(Mitchell)	SD	6	Sioux Falls	43.5488256	-96.7307737
20230208	Derailment	Macon	GA	5	Macon	32.8406946	-83.6324022
20230208	Derailment	Dayton	OH	5	Dayton	39.7589478	-84.1916069
20230208	Derailment	Yakima-Pasco-Richland-Kennewick	WA	5	Kennewick	46.2087066	-119.119919
20230208	Derailment	Butte-Bozeman	MT	5	Bozeman	45.6794293	-111.044047
20230208	Derailment	Johnstown-Altoona	PA	5	Altoona	40.518681	-78.394736
20230208	Derailment	Traverse City-Cadillac	MI	5	Cadillac	44.3353211	-85.5741088
20230208	Derailment	Minot-Bismarck-Dickinson(Williston)	ND	4	Dickinson	46.8791756	-102.7896242
20230208	Derailment	Charleston-Huntington	WV	4	Huntington	38.4192496	-82.445154
20230208	Derailment	Wilkes Barre-Scranton	PA	4	Scranton	41.4086874	-75.6621294
20230208	Derailment	Rochester MN-Mason City IA-Austin	MN	4	Austin	43.6680928	-92.9744896
20230208	Derailment	Wausau-Rhinelander	WI	4	Rhinelander	45.636623	-89.412075
20230208	Derailment	Cincinnati	OH	4	Cincinnati	39.1014537	-84.5124602
20230208	Derailment	Springfield	MO	3	Springfield		
20230208	Derailment	Louisville	KY	3	Louisville	38.2542376	-85.759407
20230208	Derailment	Tyler-Longview(Lufkin & Nacogdoches)	TX	2	Longview	32.5007031	-94.74049
20230208	Derailment	Corpus Christi	TX	2	Corpus Christi	27.7635302	-97.4033191
20230208	Derailment	Toledo	OH	2	Toledo	41.6529143	-83.5378173
20230208	Derailment	Charlottesville	VA	2	Charlottesville	38.029306	-78.4766781
20230208	Derailment	Columbus	OH	2	Columbus	39.9622601	-83.0007065
20230208	Derailment	Roanoke-Lynchburg	VA	2	Lynchburg	37.4137536	-79.1422464
20230208	Derailment	Richmond-Petersburg	VA	2	Petersburg	37.227928	-77.4019268
20230208	Derailment	Springfield-Holyoke	MA	2	Holyoke	42.2071434	-72.60765
20230208	Derailment	Jackson	MS	2	Jackson	32.3086744	-90.1983063
20230208	Derailment	Knoxville	TN	2	Knoxville	35.9603948	-83.9210261
20230208	Derailment	Grand Rapids-Kalamazoo-Battle Creek	MI	2	Battle Creek	42.3192548	-85.1824269
20230208	Derailment	Indianapolis	IN	1	Indianapolis	39.7683331	-86.1583502
20230208	Derailment	Hartford & New Haven	CT	1	New Haven	41.3082138	-72.9250518
20230208	Derailment	Madison	WI	1	Madison	43.074761	-89.3837613
20230208	Derailment	El Paso	TX	1	El Paso	31.7865623	-106.441207
20230208	Derailment	Little Rock-Pine Bluff	AR	1	Pine Bluff	34.2157064	-92.0140402
20230208	Derailment	Charlotte	NC	1	Charlotte	35.2272086	-80.8430827
20230208	Derailment	Ft. Myers-Naples	FL	1	Naples	26.1421976	-81.7942944
20230208	Derailment	Philadelphia	PA	1	Philadelphia	39.9527237	-75.1635262
20230208	Derailment	Greenville-Spartanburg SC-Asheville NC-Anderson	SC	1	Anderson	34.5258335	-82.652962
20230208	Derailment	Las Vegas	NV	1	Las Vegas	36.1672559	-115.148516
20230208	Derailment	Jacksonville	FL	1	Jacksonville	30.3321838	-81.655651
20230208	Derailment	Sacramento-Stockton-Modesto	CA	1	Modesto	37.6390972	-120.9968782
20230208	Derailment	Birmingham	AL	1	Birmingham	33.5206824	-86.8024326
20230208	Derailment	Seattle-Tacoma	WA	1	Tacoma	47.2495798	-122.439874
20230208	Derailment	Kansas City	MO	1	Kansas City	39.100105	-94.5781416
20230208	Derailment	Washington DC (Hagerstown	MD)	1	Washington DC	39.0108743	-77.17737392001567
20230208	Derailment	San Antonio	TX	1	San Antonio	29.4246002	-98.4951405
20230208	Derailment	Raleigh-Durham (Fayetteville)	NC	1	Durham	35.996653	-78.9018053
20230208	Derailment	Orlando-Daytona Beach-Melbourne	FL	1	Melbourne	28.106471	-80.6371513
20230209	Derailment	Alpena	MI	100	Alpena	45.0176181	-83.6670019
20230209	Derailment	Juneau	AK	41	Juneau	58.3019496	-134.419734
20230209	Derailment	Great Falls	MT	39	Great Falls	47.5048851	-111.29189
20230209	Derailment	Eureka	CA	25	Eureka	40.7906871	-124.1673746
20230209	Derailment	Youngstown	OH	21	Youngstown	41.1035786	-80.6520161
20230209	Derailment	Sherman TX-Ada	OK	18	Ada	34.7743383	-96.6783651
20230209	Derailment	Wheeling WV-Steubenville	OH	16	Steubenville	40.3697905	-80.6339638
20230209	Derailment	Lima	OH	14	Lima	40.7399785	-84.105006
20230209	Derailment	Clarksburg-Weston	WV	14	Weston	39.0384274	-80.467313
20230209	Derailment	Abilene-Sweetwater	TX	13	Sweetwater	32.4709519	-100.405938
20230209	Derailment	Jonesboro	AR	12	Jonesboro	35.8272257	-90.6949871
20230209	Derailment	Rockford	IL	11	Rockford	42.2713945	-89.093966
20230209	Derailment	Lake Charles	LA	10	Lake Charles	30.2072293	-93.2061609
20230209	Derailment	Davenport IA-Rock Island-Moline	IL	9	Moline	41.5058344	-90.5136642
20230209	Derailment	Bluefield-Beckley-Oak Hill	WV	9	Oak Hill	37.9723339	-81.1487136
20230209	Derailment	Jackson	MS	7	Jackson	32.3086744	-90.1983063
20230209	Derailment	Pittsburgh	PA	6	Pittsburgh	40.4416941	-79.9900861
20230209	Derailment	Topeka	KS	6	Topeka	39.049011	-95.677556
20230209	Derailment	Cleveland-Akron (Canton)	OH	6	Akron	41.083064	-81.518485
20230209	Derailment	Ft. Wayne	IN	5	Ft. Wayne	41.0799898	-85.1386015
20230209	Derailment	Lexington	KY	5	Lexington	38.0464066	-84.4970393
20230209	Derailment	Medford-Klamath Falls	OR	5	Klamath Falls	42.224867	-121.7816704
20230209	Derailment	Biloxi-Gulfport	MS	5	Gulfport	30.3674198	-89.0928155
20230209	Derailment	Charleston	SC	5	Charleston	32.7884363	-79.9399309
20230209	Derailment	Columbus	OH	5	Columbus	39.9622601	-83.0007065
20230209	Derailment	Florence-Myrtle Beach	SC	4	Myrtle Beach	33.6956461	-78.8900409
20230209	Derailment	Bakersfield	CA	4	Bakersfield	35.3738712	-119.0194639
20230209	Derailment	Tulsa	OK	3	Tulsa	36.1563122	-95.9927516
20230209	Derailment	La Crosse-Eau Claire	WI	3	Eau Claire	44.811349	-91.4984941
20230209	Derailment	Dayton	OH	3	Dayton	39.7589478	-84.1916069
20230209	Derailment	Champaign & Springfield-Decatur	IL	3	Decatur	39.8454163	-88.9524151
20230209	Derailment	Toledo	OH	3	Toledo	41.6529143	-83.5378173
20230209	Derailment	Green Bay-Appleton	WI	3	Appleton	44.2613967	-88.4069744
20230209	Derailment	Wilkes Barre-Scranton	PA	3	Scranton	41.4086874	-75.6621294
20230209	Derailment	Johnstown-Altoona	PA	3	Altoona	40.518681	-78.394736
20230209	Derailment	Roanoke-Lynchburg	VA	2	Lynchburg	37.4137536	-79.1422464
20230209	Derailment	Portland-Auburn	ME	2	Auburn	44.0978509	-70.2311655
20230209	Derailment	Greensboro-High Point-Winston Salem	NC	2	Winston Salem	36.0998131	-80.2440518
20230209	Derailment	Portland	OR	2	Portland	45.5202471	-122.674194
20230209	Derailment	Charleston-Huntington	WV	2	Huntington	38.4192496	-82.445154
20230209	Derailment	Cincinnati	OH	2	Cincinnati	39.1014537	-84.5124602
20230209	Derailment	Des Moines-Ames	IA	2	Ames	42.0267567	-93.6170448
20230209	Derailment	Richmond-Petersburg	VA	2	Petersburg	37.227928	-77.4019268
20230209	Derailment	Wichita-Hutchinson	KS	2	Hutchinson	38.0608444	-97.9297743
20230209	Derailment	Little Rock-Pine Bluff	AR	1	Pine Bluff	34.2157064	-92.0140402
20230209	Derailment	Grand Rapids-Kalamazoo-Battle Creek	MI	1	Battle Creek	42.3192548	-85.1824269
20230209	Derailment	Milwaukee	WI	1	Milwaukee	43.0349931	-87.922497
20230209	Derailment	Detroit	MI	1	Detroit	42.3315509	-83.0466403
20230209	Derailment	Philadelphia	PA	1	Philadelphia	39.9527237	-75.1635262
20230209	Derailment	St. Louis	MO	1	St. Louis	38.6280278	-90.1910154
20230209	Derailment	Hartford & New Haven	CT	1	New Haven	41.3082138	-72.9250518
20230209	Derailment	Fresno-Visalia	CA	1	Visalia	36.3302284	-119.292058
20230209	Derailment	Raleigh-Durham (Fayetteville)	NC	1	Durham	35.996653	-78.9018053
20230209	Derailment	Jacksonville	FL	1	Jacksonville	30.3321838	-81.655651
20230209	Derailment	Louisville	KY	1	Louisville	38.2542376	-85.759407
20230209	Derailment	Harrisburg-Lancaster-Lebanon-York	PA	1	York	39.9067499	-76.7008946
20230209	Derailment	Kansas City	MO	1	Kansas City	39.100105	-94.5781416
20230209	Derailment	Denver	CO	1	Denver	39.7392364	-104.984862
20230209	Derailment	West Palm Beach-Ft. Pierce	FL	1	Ft. Pierce	27.4467056	-80.3256056
20230209	Derailment	Washington DC (Hagerstown	MD)	1	Washington DC	39.0108743	-77.17737392001567
20230209	Derailment	Orlando-Daytona Beach-Melbourne	FL	1	Melbourne	28.106471	-80.6371513
20230209	Derailment	Austin	TX	1	Austin	30.2711286	-97.7436995
20230209	Derailment	Minneapolis-St. Paul	MN	1	St. Paul	44.9497487	-93.0931028
20230209	Derailment	Sacramento-Stockton-Modesto	CA	1	Modesto	37.6390972	-120.9968782
20230209	Derailment	Baltimore	MD	1	Baltimore	39.2908816	-76.610759
20230209	Derailment	Indianapolis	IN	1	Indianapolis	39.7683331	-86.1583502
20230209	Derailment	Boston MA-Manchester	NH	1	Manchester	42.9956397	-71.4547891
20230210	Derailment	Presque Isle	ME	100	Presque Isle	46.6832082	-68.0141431
20230210	Derailment	Clarksburg-Weston	WV	78	Weston	39.0384274	-80.467313
20230210	Derailment	Ottumwa IA-Kirksville	MO	62	Kirksville	40.1948848	-92.5833939
20230210	Derailment	Youngstown	OH	52	Youngstown	41.1035786	-80.6520161
20230210	Derailment	Twin Falls	ID	41	Twin Falls	42.5704456	-114.4602554
20230210	Derailment	Watertown	NY	33	Watertown	43.9747838	-75.9107565
20230210	Derailment	Wausau-Rhinelander	WI	32	Rhinelander	45.636623	-89.412075
20230210	Derailment	Idaho Falls-Pocatello	ID	24	Pocatello	42.8620287	-112.450627
20230210	Derailment	Tyler-Longview(Lufkin & Nacogdoches)	TX	23	Longview	32.5007031	-94.74049
20230210	Derailment	Columbus-Tupelo-West Point	MS	22	West Point	33.6076186	-88.6503255
20230210	Derailment	Laredo	TX	22	Laredo	27.5236998	-99.497352
20230210	Derailment	Madison	WI	21	Madison	43.074761	-89.3837613
20230210	Derailment	Duluth MN-Superior	WI	19	Superior	46.7207737	-92.1040796
20230210	Derailment	Champaign & Springfield-Decatur	IL	18	Decatur	39.8454163	-88.9524151
20230210	Derailment	Greensboro-High Point-Winston Salem	NC	18	Winston Salem	36.0998131	-80.2440518
20230210	Derailment	Missoula	MT	18	Missoula	46.8701049	-113.995267
20230210	Derailment	Amarillo	TX	17	Amarillo	35.2072185	-101.833824
20230210	Derailment	Chico-Redding	CA	16	Redding	40.5863563	-122.391675
20230210	Derailment	Corpus Christi	TX	15	Corpus Christi	27.7635302	-97.4033191
20230210	Derailment	Cleveland-Akron (Canton)	OH	15	Akron	41.083064	-81.518485
20230210	Derailment	Columbus	OH	15	Columbus	39.9622601	-83.0007065
20230210	Derailment	Lubbock	TX	14	Lubbock	33.5634402	-101.8792389
20230210	Derailment	Florence-Myrtle Beach	SC	14	Myrtle Beach	33.6956461	-78.8900409
20230210	Derailment	Jackson	MS	14	Jackson	32.3086744	-90.1983063
20230210	Derailment	Harlingen-Weslaco-Brownsville-McAllen	TX	13	McAllen	26.204114	-98.2300605
20230210	Derailment	Pittsburgh	PA	13	Pittsburgh	40.4416941	-79.9900861
20230210	Derailment	Cincinnati	OH	12	Cincinnati	39.1014537	-84.5124602
20230210	Derailment	Toledo	OH	12	Toledo	41.6529143	-83.5378173
20230210	Derailment	Fargo-Valley City	ND	12	Valley City	46.923313	-98.003155
20230210	Derailment	Panama City	FL	12	Panama City	30.1600827	-85.6545729
20230210	Derailment	Ft. Wayne	IN	12	Ft. Wayne	41.0799898	-85.1386015
20230210	Derailment	Tucson (Sierra Vista)	AZ	10	Tucson	32.2228765	-110.9748477
20230210	Derailment	Louisville	KY	10	Louisville	38.2542376	-85.759407
20230210	Derailment	Bakersfield	CA	10	Bakersfield	35.3738712	-119.0194639
20230210	Derailment	Honolulu	HI	9	Honolulu	21.304547	-157.855676
20230210	Derailment	Portland-Auburn	ME	8	Auburn	44.0978509	-70.2311655
20230210	Derailment	Harrisburg-Lancaster-Lebanon-York	PA	8	York	39.9067499	-76.7008946
20230210	Derailment	Nashville	TN	7	Nashville	36.1622767	-86.7742984
20230210	Derailment	Davenport IA-Rock Island-Moline	IL	7	Moline	41.5058344	-90.5136642
20230210	Derailment	Mobile AL-Pensacola (Ft. Walton Beach)	FL	7	Pensacola	30.421309	-87.2169149
20230210	Derailment	Portland	OR	7	Portland	45.5202471	-122.674194
20230210	Derailment	Monterey-Salinas	CA	7	Salinas	36.6744117	-121.655037
20230210	Derailment	San Antonio	TX	6	San Antonio	29.4246002	-98.4951405
20230210	Derailment	Boise	ID	6	Boise	43.6166163	-116.200886
20230210	Derailment	Colorado Springs-Pueblo	CO	6	Pueblo	38.2544472	-104.609141
20230210	Derailment	Dayton	OH	6	Dayton	39.7589478	-84.1916069
20230210	Derailment	Indianapolis	IN	6	Indianapolis	39.7683331	-86.1583502
20230210	Derailment	Ft. Myers-Naples	FL	6	Naples	26.1421976	-81.7942944
20230210	Derailment	Rochester	NY	5	Rochester	43.157285	-77.615214
20230210	Derailment	Roanoke-Lynchburg	VA	5	Lynchburg	37.4137536	-79.1422464
20230210	Derailment	Albuquerque-Santa Fe	NM	5	Santa Fe	35.6876096	-105.938456
20230210	Derailment	Green Bay-Appleton	WI	5	Appleton	44.2613967	-88.4069744
20230210	Derailment	Springfield	MO	5	Springfield		
20230210	Derailment	Memphis	TN	5	Memphis	35.1460249	-90.0517638
20230210	Derailment	Sacramento-Stockton-Modesto	CA	5	Modesto	37.6390972	-120.9968782
20230210	Derailment	Philadelphia	PA	5	Philadelphia	39.9527237	-75.1635262
20230210	Derailment	Seattle-Tacoma	WA	5	Tacoma	47.2495798	-122.439874
20230210	Derailment	Raleigh-Durham (Fayetteville)	NC	4	Durham	35.996653	-78.9018053
20230210	Derailment	Tampa-St. Petersburg (Sarasota)	FL	4	St. Petersburg	27.7703796	-82.6695085
20230210	Derailment	St. Louis	MO	4	St. Louis	38.6280278	-90.1910154
20230210	Derailment	Birmingham	AL	4	Birmingham	33.5206824	-86.8024326
20230210	Derailment	Orlando-Daytona Beach-Melbourne	FL	4	Melbourne	28.106471	-80.6371513
20230210	Derailment	Phoenix	AZ	4	Phoenix	33.4484367	-112.074141
20230210	Derailment	Buffalo	NY	3	Buffalo	42.8867166	-78.8783922
20230210	Derailment	Washington DC (Hagerstown	MD)	3	Washington DC	39.0108743	-77.17737392001567
20230210	Derailment	Chicago	IL	3	Chicago	41.8755616	-87.6244212
20230210	Derailment	Minneapolis-St. Paul	MN	3	St. Paul	44.9497487	-93.0931028
20230210	Derailment	Detroit	MI	3	Detroit	42.3315509	-83.0466403
20230210	Derailment	Jacksonville	FL	3	Jacksonville	30.3321838	-81.655651
20230210	Derailment	Houston	TX	3	Houston	29.7589382	-95.3676974
20230210	Derailment	Boston MA-Manchester	NH	3	Manchester	42.9956397	-71.4547891
20230210	Derailment	Oklahoma City	OK	3	Oklahoma City	35.4729886	-97.5170536
20230210	Derailment	Denver	CO	2	Denver	39.7392364	-104.984862
20230210	Derailment	Atlanta	GA	2	Atlanta	33.7489924	-84.3902644
20230210	Derailment	Hartford & New Haven	CT	2	New Haven	41.3082138	-72.9250518
20230210	Derailment	New York	NY	2	New York	40.7127281	-74.0060152
20230210	Derailment	Los Angeles	CA	2	Los Angeles	34.0536909	-118.242766
20230210	Derailment	Charlotte	NC	2	Charlotte	35.2272086	-80.8430827
20230210	Derailment	San Francisco-Oakland-San Jose	CA	2	San Jose	37.3361663	-121.890591
20230210	Derailment	Dallas-Ft. Worth	TX	1	Ft. Worth	32.753177	-97.3327459
20230211	Derailment	Helena	MT	100	Helena	46.5927425	-112.036277
20230211	Derailment	Abilene-Sweetwater	TX	92	Sweetwater	32.4709519	-100.405938
20230211	Derailment	Casper-Riverton	WY	80	Riverton	43.0247245	-108.380727
20230211	Derailment	Parkersburg	WV	65	Parkersburg	39.2699565	-81.5506916
20230211	Derailment	Lima	OH	55	Lima	40.7399785	-84.105006
20230211	Derailment	Youngstown	OH	51	Youngstown	41.1035786	-80.6520161
20230211	Derailment	Lake Charles	LA	51	Lake Charles	30.2072293	-93.2061609
20230211	Derailment	Erie	PA	48	Erie	42.1294712	-80.0852695
20230211	Derailment	Great Falls	MT	46	Great Falls	47.5048851	-111.29189
20230211	Derailment	Marquette	MI	46	Marquette	46.4481521	-87.6305899
20230211	Derailment	Twin Falls	ID	41	Twin Falls	42.5704456	-114.4602554
20230211	Derailment	Jonesboro	AR	36	Jonesboro	35.8272257	-90.6949871
20230211	Derailment	Terre Haute	IN	35	Terre Haute	39.4667025	-87.4139119
20230211	Derailment	Columbia-Jefferson City	MO	33	Jefferson City	38.577359	-92.1724265
20230211	Derailment	South Bend-Elkhart	IN	33	Elkhart	41.6012796	-85.8590603
20230211	Derailment	Columbus	OH	32	Columbus	39.9622601	-83.0007065
20230211	Derailment	Cincinnati	OH	30	Cincinnati	39.1014537	-84.5124602
20230211	Derailment	Binghamton	NY	30	Binghamton	42.0987125	-75.9125262
20230211	Derailment	Dayton	OH	30	Dayton	39.7589478	-84.1916069
20230211	Derailment	Utica	NY	29	Utica	43.1009031	-75.2326641
20230211	Derailment	Yakima-Pasco-Richland-Kennewick	WA	28	Kennewick	46.2087066	-119.119919
20230211	Derailment	Missoula	MT	27	Missoula	46.8701049	-113.995267
20230211	Derailment	Harrisonburg	VA	26	Harrisonburg	38.4493315	-78.8688833
20230211	Derailment	Toledo	OH	26	Toledo	41.6529143	-83.5378173
20230211	Derailment	Anchorage	AK	25	Anchorage	61.2163129	-149.894852
20230211	Derailment	La Crosse-Eau Claire	WI	24	Eau Claire	44.811349	-91.4984941
20230211	Derailment	Lafayette	LA	24	Lafayette	30.2043259	-92.0298813
20230211	Derailment	Cleveland-Akron (Canton)	OH	24	Akron	41.083064	-81.518485
20230211	Derailment	Wilkes Barre-Scranton	PA	22	Scranton	41.4086874	-75.6621294
20230211	Derailment	Pittsburgh	PA	21	Pittsburgh	40.4416941	-79.9900861
20230211	Derailment	Bakersfield	CA	21	Bakersfield	35.3738712	-119.0194639
20230211	Derailment	Medford-Klamath Falls	OR	20	Klamath Falls	42.224867	-121.7816704
20230211	Derailment	Wausau-Rhinelander	WI	20	Rhinelander	45.636623	-89.412075
20230211	Derailment	Rochester MN-Mason City IA-Austin	MN	20	Austin	43.6680928	-92.9744896
20230211	Derailment	Duluth MN-Superior	WI	18	Superior	46.7207737	-92.1040796
20230211	Derailment	Biloxi-Gulfport	MS	18	Gulfport	30.3674198	-89.0928155
20230211	Derailment	Charleston-Huntington	WV	17	Huntington	38.4192496	-82.445154
20230211	Derailment	Charlottesville	VA	16	Charlottesville	38.029306	-78.4766781
20230211	Derailment	Boise	ID	16	Boise	43.6166163	-116.200886
20230211	Derailment	Panama City	FL	16	Panama City	30.1600827	-85.6545729
20230211	Derailment	Portland-Auburn	ME	16	Auburn	44.0978509	-70.2311655
20230211	Derailment	Colorado Springs-Pueblo	CO	15	Pueblo	38.2544472	-104.609141
20230211	Derailment	Salisbury	MD	15	Salisbury	38.366027	-75.6009964
20230211	Derailment	Little Rock-Pine Bluff	AR	15	Pine Bluff	34.2157064	-92.0140402
20230211	Derailment	Madison	WI	15	Madison	43.074761	-89.3837613
20230211	Derailment	Champaign & Springfield-Decatur	IL	14	Decatur	39.8454163	-88.9524151
20230211	Derailment	Providence RI-New Bedford	MA	14	New Bedford	41.6362152	-70.934205
20230211	Derailment	Louisville	KY	14	Louisville	38.2542376	-85.759407
20230211	Derailment	Lincoln & Hastings-Kearney	NE	13	Kearney	40.4906216	-98.9472344
20230211	Derailment	Tucson (Sierra Vista)	AZ	13	Tucson	32.2228765	-110.9748477
20230211	Derailment	Montgomery (Selma)	AL	13	Montgomery	32.3669656	-86.3006485
20230211	Derailment	Burlington VT-Plattsburgh	NY	12	Plattsburgh	44.69282	-73.45562
20230211	Derailment	Des Moines-Ames	IA	12	Ames	42.0267567	-93.6170448
20230211	Derailment	Green Bay-Appleton	WI	11	Appleton	44.2613967	-88.4069744
20230211	Derailment	Wilmington	NC	11	Wilmington	34.2257282	-77.9447107
20230211	Derailment	Las Vegas	NV	10	Las Vegas	36.1672559	-115.148516
20230211	Derailment	Austin	TX	10	Austin	30.2711286	-97.7436995
20230211	Derailment	Milwaukee	WI	9	Milwaukee	43.0349931	-87.922497
20230211	Derailment	Raleigh-Durham (Fayetteville)	NC	9	Durham	35.996653	-78.9018053
20230211	Derailment	Knoxville	TN	9	Knoxville	35.9603948	-83.9210261
20230211	Derailment	Indianapolis	IN	9	Indianapolis	39.7683331	-86.1583502
20230211	Derailment	Lexington	KY	9	Lexington	38.0464066	-84.4970393
20230211	Derailment	Sacramento-Stockton-Modesto	CA	9	Modesto	37.6390972	-120.9968782
20230211	Derailment	Portland	OR	9	Portland	45.5202471	-122.674194
20230211	Derailment	Davenport IA-Rock Island-Moline	IL	9	Moline	41.5058344	-90.5136642
20230211	Derailment	Buffalo	NY	9	Buffalo	42.8867166	-78.8783922
20230211	Derailment	Harrisburg-Lancaster-Lebanon-York	PA	8	York	39.9067499	-76.7008946
20230211	Derailment	Denver	CO	8	Denver	39.7392364	-104.984862
20230211	Derailment	Chicago	IL	8	Chicago	41.8755616	-87.6244212
20230211	Derailment	Santa Barbara-Santa Maria-San Luis Obispo	CA	8	San Luis Obispo	35.3540209	-120.3757163
20230211	Derailment	Albany-Schenectady-Troy	NY	8	Troy	42.7284117	-73.6917878
20230211	Derailment	Philadelphia	PA	8	Philadelphia	39.9527237	-75.1635262
20230211	Derailment	St. Louis	MO	7	St. Louis	38.6280278	-90.1910154
20230211	Derailment	Tulsa	OK	6	Tulsa	36.1563122	-95.9927516
20230211	Derailment	Mobile AL-Pensacola (Ft. Walton Beach)	FL	6	Pensacola	30.421309	-87.2169149
20230211	Derailment	Nashville	TN	6	Nashville	36.1622767	-86.7742984
20230211	Derailment	Seattle-Tacoma	WA	6	Tacoma	47.2495798	-122.439874
20230211	Derailment	Springfield	MO	6	Springfield		
20230211	Derailment	Hartford & New Haven	CT	6	New Haven	41.3082138	-72.9250518
20230211	Derailment	Washington DC (Hagerstown	MD)	6	Washington DC	39.0108743	-77.17737392001567
20230211	Derailment	Grand Rapids-Kalamazoo-Battle Creek	MI	6	Battle Creek	42.3192548	-85.1824269
20230211	Derailment	Omaha	NE	6	Omaha	41.2587459	-95.9383758
20230211	Derailment	Birmingham	AL	6	Birmingham	33.5206824	-86.8024326
20230211	Derailment	Boston MA-Manchester	NH	5	Manchester	42.9956397	-71.4547891
20230211	Derailment	Detroit	MI	5	Detroit	42.3315509	-83.0466403
20230211	Derailment	Phoenix	AZ	5	Phoenix	33.4484367	-112.074141
20230211	Derailment	Orlando-Daytona Beach-Melbourne	FL	5	Melbourne	28.106471	-80.6371513
20230211	Derailment	Tampa-St. Petersburg (Sarasota)	FL	5	St. Petersburg	27.7703796	-82.6695085
20230211	Derailment	Richmond-Petersburg	VA	5	Petersburg	37.227928	-77.4019268
20230211	Derailment	New York	NY	5	New York	40.7127281	-74.0060152
20230211	Derailment	Los Angeles	CA	5	Los Angeles	34.0536909	-118.242766
20230211	Derailment	Minneapolis-St. Paul	MN	5	St. Paul	44.9497487	-93.0931028
20230211	Derailment	Baltimore	MD	5	Baltimore	39.2908816	-76.610759
20230211	Derailment	Albuquerque-Santa Fe	NM	4	Santa Fe	35.6876096	-105.938456
20230211	Derailment	San Francisco-Oakland-San Jose	CA	4	San Jose	37.3361663	-121.890591
20230211	Derailment	Honolulu	HI	4	Honolulu	21.304547	-157.855676
20230211	Derailment	Dallas-Ft. Worth	TX	4	Ft. Worth	32.753177	-97.3327459
20230211	Derailment	Charlotte	NC	4	Charlotte	35.2272086	-80.8430827
20230211	Derailment	Houston	TX	4	Houston	29.7589382	-95.3676974
20230211	Derailment	Ft. Myers-Naples	FL	4	Naples	26.1421976	-81.7942944
20230211	Derailment	Norfolk-Portsmouth-Newport News	VA	4	Newport News	36.9775016	-76.42977
20230211	Derailment	Salt Lake City	UT	4	Salt Lake City	40.7596198	-111.886797
20230211	Derailment	Atlanta	GA	4	Atlanta	33.7489924	-84.3902644
20230211	Derailment	New Orleans	LA	4	New Orleans	29.9759983	-90.0782127
20230211	Derailment	Greenville-Spartanburg SC-Asheville NC-Anderson	SC	3	Anderson	34.5258335	-82.652962
20230212	Derailment	Zanesville	OH	100	Zanesville	39.9403453	-82.0131924
20230212	Derailment	Bend	OR	90	Bend	44.0581728	-121.3153096
20230212	Derailment	Dayton	OH	62	Dayton	39.7589478	-84.1916069
20230212	Derailment	Youngstown	OH	57	Youngstown	41.1035786	-80.6520161
20230212	Derailment	Columbus	OH	51	Columbus	39.9622601	-83.0007065
20230212	Derailment	Terre Haute	IN	50	Terre Haute	39.4667025	-87.4139119
20230212	Derailment	Eureka	CA	48	Eureka	40.7906871	-124.1673746
20230212	Derailment	Lima	OH	45	Lima	40.7399785	-84.105006
20230212	Derailment	Meridian	MS	43	Meridian	32.3643098	-88.703656
20230212	Derailment	Watertown	NY	43	Watertown	43.9747838	-75.9107565
20230212	Derailment	Cincinnati	OH	41	Cincinnati	39.1014537	-84.5124602
20230212	Derailment	Rockford	IL	39	Rockford	42.2713945	-89.093966
20230212	Derailment	Cleveland-Akron (Canton)	OH	39	Akron	41.083064	-81.518485
20230212	Derailment	Wheeling WV-Steubenville	OH	37	Steubenville	40.3697905	-80.6339638
20230212	Derailment	Twin Falls	ID	37	Twin Falls	42.5704456	-114.4602554
20230212	Derailment	Butte-Bozeman	MT	35	Bozeman	45.6794293	-111.044047
20230212	Derailment	Evansville	IN	34	Evansville	37.9747645	-87.5558483
20230212	Derailment	Hattiesburg-Laurel	MS	32	Laurel	31.6940509	-89.1306124
20230212	Derailment	Traverse City-Cadillac	MI	30	Cadillac	44.3353211	-85.5741088
20230212	Derailment	Sherman TX-Ada	OK	30	Ada	34.7743383	-96.6783651
20230212	Derailment	Toledo	OH	29	Toledo	41.6529143	-83.5378173
20230212	Derailment	Charleston-Huntington	WV	29	Huntington	38.4192496	-82.445154
20230212	Derailment	Pittsburgh	PA	29	Pittsburgh	40.4416941	-79.9900861
20230212	Derailment	Ft. Wayne	IN	27	Ft. Wayne	41.0799898	-85.1386015
20230212	Derailment	Sioux Falls(Mitchell)	SD	26	Sioux Falls	43.5488256	-96.7307737
20230212	Derailment	Elmira	NY	25	Elmira	42.0897965	-76.8077338
20230212	Derailment	Johnstown-Altoona	PA	25	Altoona	40.518681	-78.394736
20230212	Derailment	Duluth MN-Superior	WI	24	Superior	46.7207737	-92.1040796
20230212	Derailment	Rochester MN-Mason City IA-Austin	MN	24	Austin	43.6680928	-92.9744896
20230212	Derailment	Wilmington	NC	24	Wilmington	34.2257282	-77.9447107
20230212	Derailment	Columbus-Tupelo-West Point	MS	24	West Point	33.6076186	-88.6503255
20230212	Derailment	Buffalo	NY	24	Buffalo	42.8867166	-78.8783922
20230212	Derailment	Jonesboro	AR	22	Jonesboro	35.8272257	-90.6949871
20230212	Derailment	Grand Junction-Montrose	CO	22	Montrose	38.4375391	-108.2403855
20230212	Derailment	South Bend-Elkhart	IN	22	Elkhart	41.6012796	-85.8590603
20230212	Derailment	Lexington	KY	21	Lexington	38.0464066	-84.4970393
20230212	Derailment	Erie	PA	21	Erie	42.1294712	-80.0852695
20230212	Derailment	Burlington VT-Plattsburgh	NY	20	Plattsburgh	44.69282	-73.45562
20230212	Derailment	Billings,	MT	20	Billings,	45.7547785	-108.6149764
20230212	Derailment	Amarillo	TX	20	Amarillo	35.2072185	-101.833824
20230212	Derailment	Roanoke-Lynchburg	VA	19	Lynchburg	37.4137536	-79.1422464
20230212	Derailment	Boise	ID	19	Boise	43.6166163	-116.200886
20230212	Derailment	Bowling Green	KY	19	Bowling Green	36.9903199	-86.4436018
20230212	Derailment	Lubbock	TX	19	Lubbock	33.5634402	-101.8792389
20230212	Derailment	Harrisburg-Lancaster-Lebanon-York	PA	18	York	39.9067499	-76.7008946
20230212	Derailment	Odessa-Midland	TX	18	Midland	31.9973662	-102.077948
20230212	Derailment	Madison	WI	18	Madison	43.074761	-89.3837613
20230212	Derailment	Lansing	MI	18	Lansing	42.7337712	-84.5553805
20230212	Derailment	Portland-Auburn	ME	17	Auburn	44.0978509	-70.2311655
20230212	Derailment	Lincoln & Hastings-Kearney	NE	17	Kearney	40.4906216	-98.9472344
20230212	Derailment	Louisville	KY	16	Louisville	38.2542376	-85.759407
20230212	Derailment	Savannah	GA	16	Savannah	32.0564572	-81.0951271
20230212	Derailment	Lafayette	LA	15	Lafayette	30.2043259	-92.0298813
20230212	Derailment	Detroit	MI	15	Detroit	42.3315509	-83.0466403
20230212	Derailment	Paducah KY-Cape Girardeau MO-Harrisburg-Mount Vernon	IL	15	Mount Vernon	38.3172715	-88.9031201
20230212	Derailment	Des Moines-Ames	IA	14	Ames	42.0267567	-93.6170448
20230212	Derailment	Little Rock-Pine Bluff	AR	14	Pine Bluff	34.2157064	-92.0140402
20230212	Derailment	Nashville	TN	14	Nashville	36.1622767	-86.7742984
20230212	Derailment	Montgomery (Selma)	AL	14	Montgomery	32.3669656	-86.3006485
20230212	Derailment	St. Louis	MO	14	St. Louis	38.6280278	-90.1910154
20230212	Derailment	Birmingham	AL	14	Birmingham	33.5206824	-86.8024326
20230212	Derailment	Cedar Rapids-Waterloo-Iowa City & Dubuque	IA	13	Dubuque	42.5006243	-90.6647985
20230212	Derailment	La Crosse-Eau Claire	WI	13	Eau Claire	44.811349	-91.4984941
20230212	Derailment	Raleigh-Durham (Fayetteville)	NC	13	Durham	35.996653	-78.9018053
20230212	Derailment	Albany-Schenectady-Troy	NY	13	Troy	42.7284117	-73.6917878
20230212	Derailment	Tulsa	OK	13	Tulsa	36.1563122	-95.9927516
20230212	Derailment	Greenville-Spartanburg SC-Asheville NC-Anderson	SC	13	Anderson	34.5258335	-82.652962
20230212	Derailment	Monroe LA-El Dorado	AR	13	El Dorado	33.2115087	-92.6650144
20230212	Derailment	Phoenix	AZ	13	Phoenix	33.4484367	-112.074141
20230212	Derailment	Grand Rapids-Kalamazoo-Battle Creek	MI	13	Battle Creek	42.3192548	-85.1824269
20230212	Derailment	Biloxi-Gulfport	MS	13	Gulfport	30.3674198	-89.0928155
20230212	Derailment	Tri-Cities	TN-VA	13	Cities	36.457685	-82.534731
20230212	Derailment	Denver	CO	13	Denver	39.7392364	-104.984862
20230212	Derailment	Portland	OR	13	Portland	45.5202471	-122.674194
20230212	Derailment	Columbus	GA	12	Columbus	32.4610708	-84.9880449
20230212	Derailment	Huntsville-Decatur (Florence)	AL	12	Decatur	34.6240205	-87.05791872812708
20230212	Derailment	Corpus Christi	TX	12	Corpus Christi	27.7635302	-97.4033191
20230212	Derailment	Indianapolis	IN	12	Indianapolis	39.7683331	-86.1583502
20230212	Derailment	Kansas City	MO	12	Kansas City	39.100105	-94.5781416
20230212	Derailment	Washington DC (Hagerstown	MD)	12	Washington DC	39.0108743	-77.17737392001567
20230212	Derailment	Greenville-New Bern-Washington	NC	12	Washington	35.8725573	-76.6215245
20230212	Derailment	Austin	TX	12	Austin	30.2711286	-97.7436995
20230212	Derailment	Yakima-Pasco-Richland-Kennewick	WA	11	Kennewick	46.2087066	-119.119919
20230212	Derailment	Fargo-Valley City	ND	11	Valley City	46.923313	-98.003155
20230212	Derailment	Wilkes Barre-Scranton	PA	11	Scranton	41.4086874	-75.6621294
20230212	Derailment	Mobile AL-Pensacola (Ft. Walton Beach)	FL	11	Pensacola	30.421309	-87.2169149
20230212	Derailment	Shreveport	LA	11	Shreveport	32.4707862	-93.7559378
20230212	Derailment	Charlotte	NC	11	Charlotte	35.2272086	-80.8430827
20230212	Derailment	San Diego	CA	11	San Diego	32.7174202	-117.1627728
20230212	Derailment	Knoxville	TN	11	Knoxville	35.9603948	-83.9210261
20230212	Derailment	Oklahoma City	OK	11	Oklahoma City	35.4729886	-97.5170536
20230212	Derailment	Omaha	NE	11	Omaha	41.2587459	-95.9383758
20230212	Derailment	Chicago	IL	11	Chicago	41.8755616	-87.6244212
20230212	Derailment	Boston MA-Manchester	NH	11	Manchester	42.9956397	-71.4547891
20230212	Derailment	Seattle-Tacoma	WA	10	Tacoma	47.2495798	-122.439874
20230212	Derailment	New Orleans	LA	10	New Orleans	29.9759983	-90.0782127
20230212	Derailment	Philadelphia	PA	10	Philadelphia	39.9527237	-75.1635262
20230212	Derailment	Anchorage	AK	10	Anchorage	61.2163129	-149.894852
20230212	Derailment	Tampa-St. Petersburg (Sarasota)	FL	10	St. Petersburg	27.7703796	-82.6695085
20230212	Derailment	Las Vegas	NV	10	Las Vegas	36.1672559	-115.148516
20230212	Derailment	Ft. Myers-Naples	FL	10	Naples	26.1421976	-81.7942944
20230212	Derailment	Minneapolis-St. Paul	MN	10	St. Paul	44.9497487	-93.0931028
20230212	Derailment	Augusta	GA	9	Augusta	33.4709714	-81.9748429
20230212	Derailment	Eugene	OR	9	Eugene	44.0505054	-123.0950506
20230212	Derailment	Bakersfield	CA	9	Bakersfield	35.3738712	-119.0194639
20230212	Derailment	Topeka	KS	9	Topeka	39.049011	-95.677556
20230212	Derailment	Jacksonville	FL	9	Jacksonville	30.3321838	-81.655651
20230212	Derailment	Richmond-Petersburg	VA	9	Petersburg	37.227928	-77.4019268
20230212	Derailment	Greensboro-High Point-Winston Salem	NC	9	Winston Salem	36.0998131	-80.2440518
20230212	Derailment	Houston	TX	9	Houston	29.7589382	-95.3676974
20230212	Derailment	Salisbury	MD	9	Salisbury	38.366027	-75.6009964
20230212	Derailment	Hartford & New Haven	CT	9	New Haven	41.3082138	-72.9250518
20230212	Derailment	Fresno-Visalia	CA	9	Visalia	36.3302284	-119.292058
20230212	Derailment	Milwaukee	WI	9	Milwaukee	43.0349931	-87.922497
20230212	Derailment	Wichita-Hutchinson	KS	9	Hutchinson	38.0608444	-97.9297743
20230212	Derailment	Providence RI-New Bedford	MA	8	New Bedford	41.6362152	-70.934205
20230212	Derailment	Norfolk-Portsmouth-Newport News	VA	8	Newport News	36.9775016	-76.42977
20230212	Derailment	Salt Lake City	UT	8	Salt Lake City	40.7596198	-111.886797
20230212	Derailment	Reno	NV	8	Reno	39.5261206	-119.8126581
20230212	Derailment	Baton Rouge	LA	8	Baton Rouge	30.4507936	-91.1391153
20230212	Derailment	Albuquerque-Santa Fe	NM	8	Santa Fe	35.6876096	-105.938456
20230212	Derailment	Dallas-Ft. Worth	TX	8	Ft. Worth	32.753177	-97.3327459
20230212	Derailment	El Paso	TX	7	El Paso	31.7865623	-106.441207
20230212	Derailment	Chattanooga	TN	7	Chattanooga	35.0457219	-85.3094883
20230212	Derailment	New York	NY	7	New York	40.7127281	-74.0060152
20230212	Derailment	Memphis	TN	7	Memphis	35.1460249	-90.0517638
20230212	Derailment	West Palm Beach-Ft. Pierce	FL	7	Ft. Pierce	27.4467056	-80.3256056
20230212	Derailment	Atlanta	GA	7	Atlanta	33.7489924	-84.3902644
20230212	Derailment	Baltimore	MD	7	Baltimore	39.2908816	-76.610759
20230212	Derailment	Orlando-Daytona Beach-Melbourne	FL	7	Melbourne	28.106471	-80.6371513
20230212	Derailment	Columbia	SC	7	Columbia	34.0007493	-81.0343313
20230212	Derailment	Jackson	MS	7	Jackson	32.3086744	-90.1983063
20230212	Derailment	San Francisco-Oakland-San Jose	CA	6	San Jose	37.3361663	-121.890591
20230212	Derailment	Los Angeles	CA	6	Los Angeles	34.0536909	-118.242766
20230212	Derailment	Sacramento-Stockton-Modesto	CA	6	Modesto	37.6390972	-120.9968782
20230212	Derailment	Springfield-Holyoke	MA	6	Holyoke	42.2071434	-72.60765
20230212	Derailment	Springfield	MO	6	Springfield		
20230212	Derailment	Charleston	SC	5	Charleston	32.7884363	-79.9399309
20230212	Derailment	Champaign & Springfield-Decatur	IL	5	Decatur	39.8454163	-88.9524151
20230212	Derailment	Honolulu	HI	5	Honolulu	21.304547	-157.855676
20230212	Derailment	Rochester	NY	5	Rochester	43.157285	-77.615214
20230212	Derailment	Spokane	WA	4	Spokane	47.6571934	-117.42351
20230212	Derailment	Tucson (Sierra Vista)	AZ	4	Tucson	32.2228765	-110.9748477
20230212	Derailment	San Antonio	TX	4	San Antonio	29.4246002	-98.4951405
20230212	Derailment	Miami-Ft. Lauderdale	FL	3	Ft. Lauderdale	26.1223084	-80.1433786
20230213	Derailment	Parkersburg	WV	100	Parkersburg	39.2699565	-81.5506916
20230213	Derailment	Alpena	MI	74	Alpena	45.0176181	-83.6670019
20230213	Derailment	Juneau	AK	64	Juneau	58.3019496	-134.419734
20230213	Derailment	Youngstown	OH	63	Youngstown	41.1035786	-80.6520161
20230213	Derailment	Wheeling WV-Steubenville	OH	62	Steubenville	40.3697905	-80.6339638
20230213	Derailment	Dayton	OH	62	Dayton	39.7589478	-84.1916069
20230213	Derailment	Hattiesburg-Laurel	MS	47	Laurel	31.6940509	-89.1306124
20230213	Derailment	Jackson	TN	45	Jackson	35.6144446	-88.8177418
20230213	Derailment	Columbus	OH	43	Columbus	39.9622601	-83.0007065
20230213	Derailment	Cleveland-Akron (Canton)	OH	43	Akron	41.083064	-81.518485
20230213	Derailment	Cincinnati	OH	42	Cincinnati	39.1014537	-84.5124602
20230213	Derailment	Toledo	OH	39	Toledo	41.6529143	-83.5378173
20230213	Derailment	Lima	OH	39	Lima	40.7399785	-84.105006
20230213	Derailment	Great Falls	MT	38	Great Falls	47.5048851	-111.29189
20230213	Derailment	La Crosse-Eau Claire	WI	36	Eau Claire	44.811349	-91.4984941
20230213	Derailment	Marquette	MI	36	Marquette	46.4481521	-87.6305899
20230213	Derailment	Erie	PA	36	Erie	42.1294712	-80.0852695
20230213	Derailment	Pittsburgh	PA	35	Pittsburgh	40.4416941	-79.9900861
20230213	Derailment	Helena	MT	35	Helena	46.5927425	-112.036277
20230213	Derailment	Johnstown-Altoona	PA	32	Altoona	40.518681	-78.394736
20230213	Derailment	Charleston-Huntington	WV	32	Huntington	38.4192496	-82.445154
20230213	Derailment	Meridian	MS	31	Meridian	32.3643098	-88.703656
20230213	Derailment	Billings,	MT	30	Billings,	45.7547785	-108.6149764
20230213	Derailment	Columbia-Jefferson City	MO	28	Jefferson City	38.577359	-92.1724265
20230213	Derailment	Ft. Wayne	IN	27	Ft. Wayne	41.0799898	-85.1386015
20230213	Derailment	Rockford	IL	27	Rockford	42.2713945	-89.093966
20230213	Derailment	Bakersfield	CA	26	Bakersfield	35.3738712	-119.0194639
20230213	Derailment	Joplin MO-Pittsburg	KS	26	Pittsburg	37.4108841	-94.70496
20230213	Derailment	Augusta	GA	25	Augusta	33.4709714	-81.9748429
20230213	Derailment	Bluefield-Beckley-Oak Hill	WV	25	Oak Hill	37.9723339	-81.1487136
20230213	Derailment	Louisville	KY	24	Louisville	38.2542376	-85.759407
20230213	Derailment	Lafayette	IN	24	Lafayette	40.4167022	-86.8752869
20230213	Derailment	Dothan	AL	24	Dothan	31.2237434	-85.3933906
20230213	Derailment	Elmira	NY	23	Elmira	42.0897965	-76.8077338
20230213	Derailment	South Bend-Elkhart	IN	23	Elkhart	41.6012796	-85.8590603
20230213	Derailment	Medford-Klamath Falls	OR	22	Klamath Falls	42.224867	-121.7816704
20230213	Derailment	Champaign & Springfield-Decatur	IL	22	Decatur	39.8454163	-88.9524151
20230213	Derailment	Springfield	MO	22	Springfield		
20230213	Derailment	Grand Rapids-Kalamazoo-Battle Creek	MI	22	Battle Creek	42.3192548	-85.1824269
20230213	Derailment	Buffalo	NY	22	Buffalo	42.8867166	-78.8783922
20230213	Derailment	Huntsville-Decatur (Florence)	AL	22	Decatur	34.6240205	-87.05791872812708
20230213	Derailment	Tri-Cities	TN-VA	22	Cities	36.457685	-82.534731
20230213	Derailment	Binghamton	NY	21	Binghamton	42.0987125	-75.9125262
20230213	Derailment	Madison	WI	21	Madison	43.074761	-89.3837613
20230213	Derailment	Indianapolis	IN	20	Indianapolis	39.7683331	-86.1583502
20230213	Derailment	Biloxi-Gulfport	MS	20	Gulfport	30.3674198	-89.0928155
20230213	Derailment	Greenville-Spartanburg SC-Asheville NC-Anderson	SC	20	Anderson	34.5258335	-82.652962
20230213	Derailment	Savannah	GA	20	Savannah	32.0564572	-81.0951271
20230213	Derailment	Bangor	ME	20	Bangor	44.8011821	-68.7778138
20230213	Derailment	Fargo-Valley City	ND	19	Valley City	46.923313	-98.003155
20230213	Derailment	Flint-Saginaw-Bay City	MI	19	Bay City	43.5944677	-83.8888648
20230213	Derailment	Yakima-Pasco-Richland-Kennewick	WA	18	Kennewick	46.2087066	-119.119919
20230213	Derailment	Green Bay-Appleton	WI	18	Appleton	44.2613967	-88.4069744
20230213	Derailment	Knoxville	TN	18	Knoxville	35.9603948	-83.9210261
20230213	Derailment	Paducah KY-Cape Girardeau MO-Harrisburg-Mount Vernon	IL	18	Mount Vernon	38.3172715	-88.9031201
20230213	Derailment	Nashville	TN	18	Nashville	36.1622767	-86.7742984
20230213	Derailment	Traverse City-Cadillac	MI	18	Cadillac	44.3353211	-85.5741088
20230213	Derailment	Detroit	MI	18	Detroit	42.3315509	-83.0466403
20230213	Derailment	Wausau-Rhinelander	WI	18	Rhinelander	45.636623	-89.412075
20230213	Derailment	Corpus Christi	TX	17	Corpus Christi	27.7635302	-97.4033191
20230213	Derailment	Terre Haute	IN	17	Terre Haute	39.4667025	-87.4139119
20230213	Derailment	Rochester	NY	17	Rochester	43.157285	-77.615214
20230213	Derailment	Chattanooga	TN	17	Chattanooga	35.0457219	-85.3094883
20230213	Derailment	Harrisburg-Lancaster-Lebanon-York	PA	17	York	39.9067499	-76.7008946
20230213	Derailment	Tulsa	OK	16	Tulsa	36.1563122	-95.9927516
20230213	Derailment	Minot-Bismarck-Dickinson(Williston)	ND	16	Dickinson	46.8791756	-102.7896242
20230213	Derailment	Columbia	SC	16	Columbia	34.0007493	-81.0343313
20230213	Derailment	Houston	TX	16	Houston	29.7589382	-95.3676974
20230213	Derailment	Burlington VT-Plattsburgh	NY	16	Plattsburgh	44.69282	-73.45562
20230213	Derailment	Cedar Rapids-Waterloo-Iowa City & Dubuque	IA	15	Dubuque	42.5006243	-90.6647985
20230213	Derailment	Des Moines-Ames	IA	15	Ames	42.0267567	-93.6170448
20230213	Derailment	Alexandria	LA	15	Alexandria	33.768701	-85.88066868678666
20230213	Derailment	Lansing	MI	15	Lansing	42.7337712	-84.5553805
20230213	Derailment	Richmond-Petersburg	VA	15	Petersburg	37.227928	-77.4019268
20230213	Derailment	Florence-Myrtle Beach	SC	14	Myrtle Beach	33.6956461	-78.8900409
20230213	Derailment	Bowling Green	KY	14	Bowling Green	36.9903199	-86.4436018
20230213	Derailment	Wilmington	NC	14	Wilmington	34.2257282	-77.9447107
20230213	Derailment	Charlotte	NC	14	Charlotte	35.2272086	-80.8430827
20230213	Derailment	Evansville	IN	14	Evansville	37.9747645	-87.5558483
20230213	Derailment	Charleston	SC	14	Charleston	32.7884363	-79.9399309
20230213	Derailment	Lafayette	LA	14	Lafayette	30.2043259	-92.0298813
20230213	Derailment	Butte-Bozeman	MT	14	Bozeman	45.6794293	-111.044047
20230213	Derailment	Watertown	NY	14	Watertown	43.9747838	-75.9107565
20230213	Derailment	St. Louis	MO	13	St. Louis	38.6280278	-90.1910154
20230213	Derailment	Philadelphia	PA	13	Philadelphia	39.9527237	-75.1635262
20230213	Derailment	Panama City	FL	13	Panama City	30.1600827	-85.6545729
20230213	Derailment	Boise	ID	13	Boise	43.6166163	-116.200886
20230213	Derailment	Little Rock-Pine Bluff	AR	13	Pine Bluff	34.2157064	-92.0140402
20230213	Derailment	Greenville-New Bern-Washington	NC	13	Washington	35.8725573	-76.6215245
20230213	Derailment	Austin	TX	13	Austin	30.2711286	-97.7436995
20230213	Derailment	Tucson (Sierra Vista)	AZ	13	Tucson	32.2228765	-110.9748477
20230213	Derailment	Lincoln & Hastings-Kearney	NE	12	Kearney	40.4906216	-98.9472344
20230213	Derailment	Eugene	OR	12	Eugene	44.0505054	-123.0950506
20230213	Derailment	San Antonio	TX	12	San Antonio	29.4246002	-98.4951405
20230213	Derailment	Oklahoma City	OK	12	Oklahoma City	35.4729886	-97.5170536
20230213	Derailment	Albany-Schenectady-Troy	NY	12	Troy	42.7284117	-73.6917878
20230213	Derailment	Clarksburg-Weston	WV	12	Weston	39.0384274	-80.467313
20230213	Derailment	Springfield-Holyoke	MA	12	Holyoke	42.2071434	-72.60765
20230213	Derailment	New Orleans	LA	12	New Orleans	29.9759983	-90.0782127
20230213	Derailment	Tyler-Longview(Lufkin & Nacogdoches)	TX	12	Longview	32.5007031	-94.74049
20230213	Derailment	Dallas-Ft. Worth	TX	11	Ft. Worth	32.753177	-97.3327459
20230213	Derailment	Chicago	IL	11	Chicago	41.8755616	-87.6244212
20230213	Derailment	Denver	CO	11	Denver	39.7392364	-104.984862
20230213	Derailment	Davenport IA-Rock Island-Moline	IL	11	Moline	41.5058344	-90.5136642
20230213	Derailment	Wilkes Barre-Scranton	PA	11	Scranton	41.4086874	-75.6621294
20230213	Derailment	Sherman TX-Ada	OK	11	Ada	34.7743383	-96.6783651
20230213	Derailment	Lake Charles	LA	11	Lake Charles	30.2072293	-93.2061609
20230213	Derailment	Kansas City	MO	11	Kansas City	39.100105	-94.5781416
20230213	Derailment	Sioux Falls(Mitchell)	SD	11	Sioux Falls	43.5488256	-96.7307737
20230213	Derailment	Columbus	GA	11	Columbus	32.4610708	-84.9880449
20230213	Derailment	Phoenix	AZ	10	Phoenix	33.4484367	-112.074141
20230213	Derailment	Boston MA-Manchester	NH	10	Manchester	42.9956397	-71.4547891
20230213	Derailment	Missoula	MT	10	Missoula	46.8701049	-113.995267
20230213	Derailment	Jacksonville	FL	10	Jacksonville	30.3321838	-81.655651
20230213	Derailment	Seattle-Tacoma	WA	10	Tacoma	47.2495798	-122.439874
20230213	Derailment	Minneapolis-St. Paul	MN	10	St. Paul	44.9497487	-93.0931028
20230213	Derailment	Tampa-St. Petersburg (Sarasota)	FL	10	St. Petersburg	27.7703796	-82.6695085
20230213	Derailment	Lexington	KY	10	Lexington	38.0464066	-84.4970393
20230213	Derailment	Portland	OR	10	Portland	45.5202471	-122.674194
20230213	Derailment	Quincy IL-Hannibal MO-Keokuk	IA	10	Keokuk	41.3154792	-92.1867128
20230213	Derailment	Washington DC (Hagerstown	MD)	10	Washington DC	39.0108743	-77.17737392001567
20230213	Derailment	Mobile AL-Pensacola (Ft. Walton Beach)	FL	10	Pensacola	30.421309	-87.2169149
20230213	Derailment	Ft. Myers-Naples	FL	10	Naples	26.1421976	-81.7942944
20230213	Derailment	Amarillo	TX	10	Amarillo	35.2072185	-101.833824
20230213	Derailment	Milwaukee	WI	10	Milwaukee	43.0349931	-87.922497
20230213	Derailment	Albuquerque-Santa Fe	NM	10	Santa Fe	35.6876096	-105.938456
20230213	Derailment	Sacramento-Stockton-Modesto	CA	10	Modesto	37.6390972	-120.9968782
20230213	Derailment	San Diego	CA	10	San Diego	32.7174202	-117.1627728
20230213	Derailment	Wichita-Hutchinson	KS	9	Hutchinson	38.0608444	-97.9297743
20230213	Derailment	Topeka	KS	9	Topeka	39.049011	-95.677556
20230213	Derailment	Duluth MN-Superior	WI	9	Superior	46.7207737	-92.1040796
20230213	Derailment	Spokane	WA	9	Spokane	47.6571934	-117.42351
20230213	Derailment	Wichita Falls TX & Lawton	OK	9	Lawton	34.6086854	-98.3903305
20230213	Derailment	Sioux City	IA	9	Sioux City	42.4966815	-96.4058782
20230213	Derailment	Hartford & New Haven	CT	9	New Haven	41.3082138	-72.9250518
20230213	Derailment	Omaha	NE	9	Omaha	41.2587459	-95.9383758
20230213	Derailment	Raleigh-Durham (Fayetteville)	NC	9	Durham	35.996653	-78.9018053
20230213	Derailment	Salt Lake City	UT	9	Salt Lake City	40.7596198	-111.886797
20230213	Derailment	Colorado Springs-Pueblo	CO	9	Pueblo	38.2544472	-104.609141
20230213	Derailment	Greensboro-High Point-Winston Salem	NC	9	Winston Salem	36.0998131	-80.2440518
20230213	Derailment	Providence RI-New Bedford	MA	9	New Bedford	41.6362152	-70.934205
20230213	Derailment	Las Vegas	NV	9	Las Vegas	36.1672559	-115.148516
20230213	Derailment	Idaho Falls-Pocatello	ID	9	Pocatello	42.8620287	-112.450627
20230213	Derailment	West Palm Beach-Ft. Pierce	FL	8	Ft. Pierce	27.4467056	-80.3256056
20230213	Derailment	Atlanta	GA	8	Atlanta	33.7489924	-84.3902644
20230213	Derailment	Birmingham	AL	8	Birmingham	33.5206824	-86.8024326
20230213	Derailment	Macon	GA	8	Macon	32.8406946	-83.6324022
20230213	Derailment	Orlando-Daytona Beach-Melbourne	FL	8	Melbourne	28.106471	-80.6371513
20230213	Derailment	Baton Rouge	LA	7	Baton Rouge	30.4507936	-91.1391153
20230213	Derailment	Reno	NV	7	Reno	39.5261206	-119.8126581
20230213	Derailment	Baltimore	MD	7	Baltimore	39.2908816	-76.610759
20230213	Derailment	Beaumont-Port Arthur	TX	7	Port Arthur	29.8988618	-93.9288723
20230213	Derailment	Charlottesville	VA	7	Charlottesville	38.029306	-78.4766781
20230213	Derailment	Norfolk-Portsmouth-Newport News	VA	7	Newport News	36.9775016	-76.42977
20230213	Derailment	Honolulu	HI	7	Honolulu	21.304547	-157.855676
20230213	Derailment	Montgomery (Selma)	AL	7	Montgomery	32.3669656	-86.3006485
20230213	Derailment	Roanoke-Lynchburg	VA	7	Lynchburg	37.4137536	-79.1422464
20230213	Derailment	Waco-Temple-Bryan	TX	7	Bryan	30.6743643	-96.3699632
20230213	Derailment	Miami-Ft. Lauderdale	FL	7	Ft. Lauderdale	26.1223084	-80.1433786
20230213	Derailment	New York	NY	7	New York	40.7127281	-74.0060152
20230213	Derailment	Fresno-Visalia	CA	7	Visalia	36.3302284	-119.292058
20230213	Derailment	Jackson	MS	7	Jackson	32.3086744	-90.1983063
20230213	Derailment	Memphis	TN	7	Memphis	35.1460249	-90.0517638
20230213	Derailment	San Francisco-Oakland-San Jose	CA	6	San Jose	37.3361663	-121.890591
20230213	Derailment	Los Angeles	CA	6	Los Angeles	34.0536909	-118.242766
20230213	Derailment	Peoria-Bloomington	IL	6	Bloomington	40.4797828	-88.9939147
20230213	Derailment	Columbus-Tupelo-West Point	MS	6	West Point	33.6076186	-88.6503255
20230213	Derailment	Rochester MN-Mason City IA-Austin	MN	6	Austin	43.6680928	-92.9744896
20230213	Derailment	Portland-Auburn	ME	5	Auburn	44.0978509	-70.2311655
20230213	Derailment	El Paso	TX	5	El Paso	31.7865623	-106.441207
20230213	Derailment	Ft. Smith-Fayetteville-Springdale-Rogers	AR	5	Rogers	36.3320197	-94.1185366
20230213	Derailment	Anchorage	AK	5	Anchorage	61.2163129	-149.894852
20230213	Derailment	Gainesville	FL	5	Gainesville	29.6519684	-82.3249846
20230213	Derailment	Syracuse	NY	4	Syracuse	43.0481221	-76.1474244
20230213	Derailment	Santa Barbara-Santa Maria-San Luis Obispo	CA	4	San Luis Obispo	35.3540209	-120.3757163
20230213	Derailment	Odessa-Midland	TX	4	Midland	31.9973662	-102.077948
20230213	Derailment	Lubbock	TX	4	Lubbock	33.5634402	-101.8792389
20230213	Derailment	Shreveport	LA	3	Shreveport	32.4707862	-93.7559378
20230214	Derailment	Wheeling WV-Steubenville	OH	100	Steubenville	40.3697905	-80.6339638
20230214	Derailment	Presque Isle	ME	98	Presque Isle	46.6832082	-68.0141431
20230214	Derailment	Parkersburg	WV	91	Parkersburg	39.2699565	-81.5506916
20230214	Derailment	Alexandria	LA	76	Alexandria	33.768701	-85.88066868678666
20230214	Derailment	Youngstown	OH	74	Youngstown	41.1035786	-80.6520161
20230214	Derailment	Dayton	OH	66	Dayton	39.7589478	-84.1916069
20230214	Derailment	Cleveland-Akron (Canton)	OH	61	Akron	41.083064	-81.518485
20230214	Derailment	Toledo	OH	59	Toledo	41.6529143	-83.5378173
20230214	Derailment	Charleston-Huntington	WV	55	Huntington	38.4192496	-82.445154
20230214	Derailment	Cincinnati	OH	53	Cincinnati	39.1014537	-84.5124602
20230214	Derailment	Lima	OH	52	Lima	40.7399785	-84.105006
20230214	Derailment	Columbus	OH	51	Columbus	39.9622601	-83.0007065
20230214	Derailment	Erie	PA	45	Erie	42.1294712	-80.0852695
20230214	Derailment	Evansville	IN	43	Evansville	37.9747645	-87.5558483
20230214	Derailment	Pittsburgh	PA	43	Pittsburgh	40.4416941	-79.9900861
20230214	Derailment	San Angelo	TX	43	San Angelo	31.4649685	-100.4405094
20230214	Derailment	St. Joseph	MO	42	St. Joseph	39.7686055	-94.8466322
20230214	Derailment	Ottumwa IA-Kirksville	MO	42	Kirksville	40.1948848	-92.5833939
20230214	Derailment	Johnstown-Altoona	PA	41	Altoona	40.518681	-78.394736
20230214	Derailment	Grand Junction-Montrose	CO	39	Montrose	38.4375391	-108.2403855
20230214	Derailment	Bowling Green	KY	38	Bowling Green	36.9903199	-86.4436018
20230214	Derailment	Paducah KY-Cape Girardeau MO-Harrisburg-Mount Vernon	IL	38	Mount Vernon	38.3172715	-88.9031201
20230214	Derailment	Helena	MT	37	Helena	46.5927425	-112.036277
20230214	Derailment	Ft. Wayne	IN	36	Ft. Wayne	41.0799898	-85.1386015
20230214	Derailment	Sherman TX-Ada	OK	36	Ada	34.7743383	-96.6783651
20230214	Derailment	Charleston	SC	33	Charleston	32.7884363	-79.9399309
20230214	Derailment	Victoria	TX	32	Victoria	28.8026443	-96.9766308
20230214	Derailment	Augusta	GA	30	Augusta	33.4709714	-81.9748429
20230214	Derailment	Champaign & Springfield-Decatur	IL	29	Decatur	39.8454163	-88.9524151
20230214	Derailment	Zanesville	OH	29	Zanesville	39.9403453	-82.0131924
20230214	Derailment	Utica	NY	29	Utica	43.1009031	-75.2326641
20230214	Derailment	Louisville	KY	27	Louisville	38.2542376	-85.759407
20230214	Derailment	Laredo	TX	27	Laredo	27.5236998	-99.497352
20230214	Derailment	Bluefield-Beckley-Oak Hill	WV	26	Oak Hill	37.9723339	-81.1487136
20230214	Derailment	Jonesboro	AR	26	Jonesboro	35.8272257	-90.6949871
20230214	Derailment	Marquette	MI	25	Marquette	46.4481521	-87.6305899
20230214	Derailment	Davenport IA-Rock Island-Moline	IL	25	Moline	41.5058344	-90.5136642
20230214	Derailment	South Bend-Elkhart	IN	25	Elkhart	41.6012796	-85.8590603
20230214	Derailment	Watertown	NY	25	Watertown	43.9747838	-75.9107565
20230214	Derailment	Greenville-Spartanburg SC-Asheville NC-Anderson	SC	24	Anderson	34.5258335	-82.652962
20230214	Derailment	Indianapolis	IN	24	Indianapolis	39.7683331	-86.1583502
20230214	Derailment	Cedar Rapids-Waterloo-Iowa City & Dubuque	IA	23	Dubuque	42.5006243	-90.6647985
20230214	Derailment	Buffalo	NY	23	Buffalo	42.8867166	-78.8783922
20230214	Derailment	Joplin MO-Pittsburg	KS	23	Pittsburg	37.4108841	-94.70496
20230214	Derailment	Missoula	MT	23	Missoula	46.8701049	-113.995267
20230214	Derailment	Traverse City-Cadillac	MI	23	Cadillac	44.3353211	-85.5741088
20230214	Derailment	Huntsville-Decatur (Florence)	AL	23	Decatur	34.6240205	-87.05791872812708
20230214	Derailment	Flint-Saginaw-Bay City	MI	23	Bay City	43.5944677	-83.8888648
20230214	Derailment	Grand Rapids-Kalamazoo-Battle Creek	MI	23	Battle Creek	42.3192548	-85.1824269
20230214	Derailment	Savannah	GA	23	Savannah	32.0564572	-81.0951271
20230214	Derailment	Madison	WI	22	Madison	43.074761	-89.3837613
20230214	Derailment	Knoxville	TN	22	Knoxville	35.9603948	-83.9210261
20230214	Derailment	Lexington	KY	22	Lexington	38.0464066	-84.4970393
20230214	Derailment	La Crosse-Eau Claire	WI	22	Eau Claire	44.811349	-91.4984941
20230214	Derailment	Bangor	ME	21	Bangor	44.8011821	-68.7778138
20230214	Derailment	Fargo-Valley City	ND	21	Valley City	46.923313	-98.003155
20230214	Derailment	Terre Haute	IN	21	Terre Haute	39.4667025	-87.4139119
20230214	Derailment	Detroit	MI	21	Detroit	42.3315509	-83.0466403
20230214	Derailment	Florence-Myrtle Beach	SC	21	Myrtle Beach	33.6956461	-78.8900409
20230214	Derailment	Harrisburg-Lancaster-Lebanon-York	PA	20	York	39.9067499	-76.7008946
20230214	Derailment	Tri-Cities	TN-VA	20	Cities	36.457685	-82.534731
20230214	Derailment	Wausau-Rhinelander	WI	20	Rhinelander	45.636623	-89.412075
20230214	Derailment	Columbia	SC	20	Columbia	34.0007493	-81.0343313
20230214	Derailment	Green Bay-Appleton	WI	19	Appleton	44.2613967	-88.4069744
20230214	Derailment	Tulsa	OK	19	Tulsa	36.1563122	-95.9927516
20230214	Derailment	Columbia-Jefferson City	MO	19	Jefferson City	38.577359	-92.1724265
20230214	Derailment	Wilkes Barre-Scranton	PA	19	Scranton	41.4086874	-75.6621294
20230214	Derailment	Lincoln & Hastings-Kearney	NE	19	Kearney	40.4906216	-98.9472344
20230214	Derailment	Des Moines-Ames	IA	19	Ames	42.0267567	-93.6170448
20230214	Derailment	Tyler-Longview(Lufkin & Nacogdoches)	TX	19	Longview	32.5007031	-94.74049
20230214	Derailment	Biloxi-Gulfport	MS	19	Gulfport	30.3674198	-89.0928155
20230214	Derailment	Mobile AL-Pensacola (Ft. Walton Beach)	FL	19	Pensacola	30.421309	-87.2169149
20230214	Derailment	Wilmington	NC	19	Wilmington	34.2257282	-77.9447107
20230214	Derailment	Meridian	MS	19	Meridian	32.3643098	-88.703656
20230214	Derailment	Duluth MN-Superior	WI	19	Superior	46.7207737	-92.1040796
20230214	Derailment	Tucson (Sierra Vista)	AZ	18	Tucson	32.2228765	-110.9748477
20230214	Derailment	Waco-Temple-Bryan	TX	18	Bryan	30.6743643	-96.3699632
20230214	Derailment	Nashville	TN	18	Nashville	36.1622767	-86.7742984
20230214	Derailment	Rochester	NY	18	Rochester	43.157285	-77.615214
20230214	Derailment	Peoria-Bloomington	IL	18	Bloomington	40.4797828	-88.9939147
20230214	Derailment	Lafayette	IN	18	Lafayette	40.4167022	-86.8752869
20230214	Derailment	Chattanooga	TN	18	Chattanooga	35.0457219	-85.3094883
20230214	Derailment	Yakima-Pasco-Richland-Kennewick	WA	18	Kennewick	46.2087066	-119.119919
20230214	Derailment	Charlotte	NC	17	Charlotte	35.2272086	-80.8430827
20230214	Derailment	Lake Charles	LA	17	Lake Charles	30.2072293	-93.2061609
20230214	Derailment	Springfield	MO	17	Springfield		
20230214	Derailment	Burlington VT-Plattsburgh	NY	17	Plattsburgh	44.69282	-73.45562
20230214	Derailment	St. Louis	MO	17	St. Louis	38.6280278	-90.1910154
20230214	Derailment	Little Rock-Pine Bluff	AR	17	Pine Bluff	34.2157064	-92.0140402
20230214	Derailment	Lansing	MI	17	Lansing	42.7337712	-84.5553805
20230214	Derailment	Amarillo	TX	17	Amarillo	35.2072185	-101.833824
20230214	Derailment	San Antonio	TX	17	San Antonio	29.4246002	-98.4951405
20230214	Derailment	Boise	ID	17	Boise	43.6166163	-116.200886
20230214	Derailment	Baton Rouge	LA	16	Baton Rouge	30.4507936	-91.1391153
20230214	Derailment	Houston	TX	16	Houston	29.7589382	-95.3676974
20230214	Derailment	Greensboro-High Point-Winston Salem	NC	16	Winston Salem	36.0998131	-80.2440518
20230214	Derailment	Memphis	TN	16	Memphis	35.1460249	-90.0517638
20230214	Derailment	Lafayette	LA	16	Lafayette	30.2043259	-92.0298813
20230214	Derailment	Gainesville	FL	16	Gainesville	29.6519684	-82.3249846
20230214	Derailment	Roanoke-Lynchburg	VA	16	Lynchburg	37.4137536	-79.1422464
20230214	Derailment	Panama City	FL	16	Panama City	30.1600827	-85.6545729
20230214	Derailment	New Orleans	LA	15	New Orleans	29.9759983	-90.0782127
20230214	Derailment	Philadelphia	PA	15	Philadelphia	39.9527237	-75.1635262
20230214	Derailment	Chico-Redding	CA	15	Redding	40.5863563	-122.391675
20230214	Derailment	Montgomery (Selma)	AL	15	Montgomery	32.3669656	-86.3006485
20230214	Derailment	Minot-Bismarck-Dickinson(Williston)	ND	15	Dickinson	46.8791756	-102.7896242
20230214	Derailment	Rochester MN-Mason City IA-Austin	MN	15	Austin	43.6680928	-92.9744896
20230214	Derailment	Oklahoma City	OK	15	Oklahoma City	35.4729886	-97.5170536
20230214	Derailment	Austin	TX	14	Austin	30.2711286	-97.7436995
20230214	Derailment	Albany-Schenectady-Troy	NY	14	Troy	42.7284117	-73.6917878
20230214	Derailment	Columbus	GA	14	Columbus	32.4610708	-84.9880449
20230214	Derailment	Binghamton	NY	14	Binghamton	42.0987125	-75.9125262
20230214	Derailment	Omaha	NE	14	Omaha	41.2587459	-95.9383758
20230214	Derailment	Colorado Springs-Pueblo	CO	14	Pueblo	38.2544472	-104.609141
20230214	Derailment	Minneapolis-St. Paul	MN	14	St. Paul	44.9497487	-93.0931028
20230214	Derailment	Ft. Myers-Naples	FL	13	Naples	26.1421976	-81.7942944
20230214	Derailment	Albany	GA	13	Albany	31.5782062	-84.1556809
20230214	Derailment	Dallas-Ft. Worth	TX	13	Ft. Worth	32.753177	-97.3327459
20230214	Derailment	Chicago	IL	13	Chicago	41.8755616	-87.6244212
20230214	Derailment	Tampa-St. Petersburg (Sarasota)	FL	13	St. Petersburg	27.7703796	-82.6695085
20230214	Derailment	Sioux City	IA	13	Sioux City	42.4966815	-96.4058782
20230214	Derailment	Corpus Christi	TX	13	Corpus Christi	27.7635302	-97.4033191
20230214	Derailment	Topeka	KS	13	Topeka	39.049011	-95.677556
20230214	Derailment	Phoenix	AZ	13	Phoenix	33.4484367	-112.074141
20230214	Derailment	Abilene-Sweetwater	TX	13	Sweetwater	32.4709519	-100.405938
20230214	Derailment	Birmingham	AL	12	Birmingham	33.5206824	-86.8024326
20230214	Derailment	Spokane	WA	12	Spokane	47.6571934	-117.42351
20230214	Derailment	Bend	OR	12	Bend	44.0581728	-121.3153096
20230214	Derailment	Jacksonville	FL	12	Jacksonville	30.3321838	-81.655651
20230214	Derailment	Reno	NV	12	Reno	39.5261206	-119.8126581
20230214	Derailment	Ft. Smith-Fayetteville-Springdale-Rogers	AR	12	Rogers	36.3320197	-94.1185366
20230214	Derailment	Wichita-Hutchinson	KS	12	Hutchinson	38.0608444	-97.9297743
20230214	Derailment	Boston MA-Manchester	NH	12	Manchester	42.9956397	-71.4547891
20230214	Derailment	Milwaukee	WI	12	Milwaukee	43.0349931	-87.922497
20230214	Derailment	Hattiesburg-Laurel	MS	12	Laurel	31.6940509	-89.1306124
20230214	Derailment	Lubbock	TX	11	Lubbock	33.5634402	-101.8792389
20230214	Derailment	Syracuse	NY	11	Syracuse	43.0481221	-76.1474244
20230214	Derailment	Elmira	NY	11	Elmira	42.0897965	-76.8077338
20230214	Derailment	Eugene	OR	11	Eugene	44.0505054	-123.0950506
20230214	Derailment	Columbus-Tupelo-West Point	MS	11	West Point	33.6076186	-88.6503255
20230214	Derailment	Baltimore	MD	11	Baltimore	39.2908816	-76.610759
20230214	Derailment	Raleigh-Durham (Fayetteville)	NC	11	Durham	35.996653	-78.9018053
20230214	Derailment	Hartford & New Haven	CT	11	New Haven	41.3082138	-72.9250518
20230214	Derailment	Wichita Falls TX & Lawton	OK	11	Lawton	34.6086854	-98.3903305
20230214	Derailment	San Diego	CA	11	San Diego	32.7174202	-117.1627728
20230214	Derailment	Springfield-Holyoke	MA	11	Holyoke	42.2071434	-72.60765
20230214	Derailment	Seattle-Tacoma	WA	11	Tacoma	47.2495798	-122.439874
20230214	Derailment	Denver	CO	11	Denver	39.7392364	-104.984862
20230214	Derailment	Portland-Auburn	ME	11	Auburn	44.0978509	-70.2311655
20230214	Derailment	Medford-Klamath Falls	OR	11	Klamath Falls	42.224867	-121.7816704
20230214	Derailment	Salt Lake City	UT	11	Salt Lake City	40.7596198	-111.886797
20230214	Derailment	Atlanta	GA	10	Atlanta	33.7489924	-84.3902644
20230214	Derailment	Salisbury	MD	10	Salisbury	38.366027	-75.6009964
20230214	Derailment	Norfolk-Portsmouth-Newport News	VA	10	Newport News	36.9775016	-76.42977
20230214	Derailment	Washington DC (Hagerstown	MD)	10	Washington DC	39.0108743	-77.17737392001567
20230214	Derailment	Greenville-New Bern-Washington	NC	10	Washington	35.8725573	-76.6215245
20230214	Derailment	Richmond-Petersburg	VA	10	Petersburg	37.227928	-77.4019268
20230214	Derailment	Idaho Falls-Pocatello	ID	10	Pocatello	42.8620287	-112.450627
20230214	Derailment	Orlando-Daytona Beach-Melbourne	FL	10	Melbourne	28.106471	-80.6371513
20230214	Derailment	Albuquerque-Santa Fe	NM	10	Santa Fe	35.6876096	-105.938456
20230214	Derailment	Providence RI-New Bedford	MA	10	New Bedford	41.6362152	-70.934205
20230214	Derailment	Sacramento-Stockton-Modesto	CA	10	Modesto	37.6390972	-120.9968782
20230214	Derailment	Dothan	AL	10	Dothan	31.2237434	-85.3933906
20230214	Derailment	Portland	OR	9	Portland	45.5202471	-122.674194
20230214	Derailment	Kansas City	MO	9	Kansas City	39.100105	-94.5781416
20230214	Derailment	Las Vegas	NV	9	Las Vegas	36.1672559	-115.148516
20230214	Derailment	West Palm Beach-Ft. Pierce	FL	9	Ft. Pierce	27.4467056	-80.3256056
20230214	Derailment	Odessa-Midland	TX	9	Midland	31.9973662	-102.077948
20230214	Derailment	Yuma AZ-El Centro	CA	9	El Centro	32.792	-115.563051
20230214	Derailment	Anchorage	AK	9	Anchorage	61.2163129	-149.894852
20230214	Derailment	Shreveport	LA	8	Shreveport	32.4707862	-93.7559378
20230214	Derailment	El Paso	TX	8	El Paso	31.7865623	-106.441207
20230214	Derailment	New York	NY	8	New York	40.7127281	-74.0060152
20230214	Derailment	Miami-Ft. Lauderdale	FL	8	Ft. Lauderdale	26.1223084	-80.1433786
20230214	Derailment	San Francisco-Oakland-San Jose	CA	8	San Jose	37.3361663	-121.890591
20230214	Derailment	Honolulu	HI	7	Honolulu	21.304547	-157.855676
20230214	Derailment	Bakersfield	CA	7	Bakersfield	35.3738712	-119.0194639
20230214	Derailment	Macon	GA	7	Macon	32.8406946	-83.6324022
20230214	Derailment	Jackson	MS	7	Jackson	32.3086744	-90.1983063
20230214	Derailment	Los Angeles	CA	7	Los Angeles	34.0536909	-118.242766
20230214	Derailment	Rockford	IL	7	Rockford	42.2713945	-89.093966
20230214	Derailment	Harlingen-Weslaco-Brownsville-McAllen	TX	6	McAllen	26.204114	-98.2300605
20230214	Derailment	Fresno-Visalia	CA	6	Visalia	36.3302284	-119.292058
20230214	Derailment	Tallahassee FL-Thomasville	GA	5	Thomasville	30.8365815	-83.9787808
20230214	Derailment	Monterey-Salinas	CA	5	Salinas	36.6744117	-121.655037
20230214	Derailment	Sioux Falls(Mitchell)	SD	5	Sioux Falls	43.5488256	-96.7307737
20230214	Derailment	Charlottesville	VA	3	Charlottesville	38.029306	-78.4766781
20230214	Derailment	Santa Barbara-Santa Maria-San Luis Obispo	CA	3	San Luis Obispo	35.3540209	-120.3757163
20230215	Derailment	Parkersburg	WV	100	Parkersburg	39.2699565	-81.5506916
20230215	Derailment	Wheeling WV-Steubenville	OH	97	Steubenville	40.3697905	-80.6339638
20230215	Derailment	Youngstown	OH	93	Youngstown	41.1035786	-80.6520161
20230215	Derailment	Clarksburg-Weston	WV	69	Weston	39.0384274	-80.467313
20230215	Derailment	Charleston-Huntington	WV	67	Huntington	38.4192496	-82.445154
20230215	Derailment	Toledo	OH	56	Toledo	41.6529143	-83.5378173
20230215	Derailment	Dayton	OH	54	Dayton	39.7589478	-84.1916069
20230215	Derailment	Cleveland-Akron (Canton)	OH	54	Akron	41.083064	-81.518485
20230215	Derailment	Cincinnati	OH	46	Cincinnati	39.1014537	-84.5124602
20230215	Derailment	Columbus	OH	44	Columbus	39.9622601	-83.0007065
20230215	Derailment	Lima	OH	43	Lima	40.7399785	-84.105006
20230215	Derailment	Pittsburgh	PA	42	Pittsburgh	40.4416941	-79.9900861
20230215	Derailment	Erie	PA	40	Erie	42.1294712	-80.0852695
20230215	Derailment	Bluefield-Beckley-Oak Hill	WV	40	Oak Hill	37.9723339	-81.1487136
20230215	Derailment	Juneau	AK	37	Juneau	58.3019496	-134.419734
20230215	Derailment	Detroit	MI	36	Detroit	42.3315509	-83.0466403
20230215	Derailment	Lansing	MI	35	Lansing	42.7337712	-84.5553805
20230215	Derailment	Terre Haute	IN	35	Terre Haute	39.4667025	-87.4139119
20230215	Derailment	Lafayette	IN	35	Lafayette	40.4167022	-86.8752869
20230215	Derailment	Watertown	NY	32	Watertown	43.9747838	-75.9107565
20230215	Derailment	Evansville	IN	32	Evansville	37.9747645	-87.5558483
20230215	Derailment	Traverse City-Cadillac	MI	32	Cadillac	44.3353211	-85.5741088
20230215	Derailment	Flint-Saginaw-Bay City	MI	31	Bay City	43.5944677	-83.8888648
20230215	Derailment	Johnstown-Altoona	PA	31	Altoona	40.518681	-78.394736
20230215	Derailment	Grand Rapids-Kalamazoo-Battle Creek	MI	31	Battle Creek	42.3192548	-85.1824269
20230215	Derailment	Eureka	CA	31	Eureka	40.7906871	-124.1673746
20230215	Derailment	San Angelo	TX	30	San Angelo	31.4649685	-100.4405094
20230215	Derailment	Elmira	NY	30	Elmira	42.0897965	-76.8077338
20230215	Derailment	Lexington	KY	28	Lexington	38.0464066	-84.4970393
20230215	Derailment	Louisville	KY	26	Louisville	38.2542376	-85.759407
20230215	Derailment	Buffalo	NY	24	Buffalo	42.8867166	-78.8783922
20230215	Derailment	La Crosse-Eau Claire	WI	24	Eau Claire	44.811349	-91.4984941
20230215	Derailment	Ft. Wayne	IN	24	Ft. Wayne	41.0799898	-85.1386015
20230215	Derailment	South Bend-Elkhart	IN	24	Elkhart	41.6012796	-85.8590603
20230215	Derailment	Indianapolis	IN	24	Indianapolis	39.7683331	-86.1583502
20230215	Derailment	Victoria	TX	23	Victoria	28.8026443	-96.9766308
20230215	Derailment	Ottumwa IA-Kirksville	MO	23	Kirksville	40.1948848	-92.5833939
